[
  {
    "id": "729602712",
    "name": "Nhà Hàng BBQ Chicken",
    "category_id": 3,
    "rating": 4.9,
    "price_level": 1,
    "address": "Đường phố, TP. Hồ Chí Minh",
    "lat": 10.768208,
    "lon": 106.6841501,
    "phone_number": "",
    "open_hours": "08:00 - 22:00",
    "main_image_url": "",
    "tags": [
      "restaurant",
      "TP. Hồ Chí Minh"
    ]
  },
  {
    "id": "729602781",
    "name": "Nhà Hàng Au Tresor",
    "category_id": 3,
    "rating": 4.2,
    "price_level": 1,
    "address": "Đường phố, TP. Hồ Chí Minh",
    "lat": 10.772698,
    "lon": 106.7048299,
    "phone_number": "",
    "open_hours": "08:00 - 22:00",
    "main_image_url": "",
    "tags": [
      "restaurant",
      "TP. Hồ Chí Minh"
    ]
  },
  {
    "id": "924797880",
    "name": "Nhà Hàng Bờ Sông",
    "category_id": 2,
    "rating": 4.4,
    "price_level": 3,
    "address": "Đường phố, TP. Hồ Chí Minh",
    "lat": 10.789502,
    "lon": 106.711158,
    "phone_number": "",
    "open_hours": "08:00 - 22:00",
    "main_image_url": "",
    "tags": [
      "restaurant",
      "TP. Hồ Chí Minh"
    ]
  },
  {
    "id": "939234266",
    "name": "Nhà Hàng Hai Lúa Sài Gòn",
    "category_id": 4,
    "rating": 4.8,
    "price_level": 3,
    "address": "Đường phố, TP. Hồ Chí Minh",
    "lat": 10.7807008,
    "lon": 106.7067111,
    "phone_number": "",
    "open_hours": "08:00 - 22:00",
    "main_image_url": "",
    "tags": [
      "restaurant",
      "TP. Hồ Chí Minh"
    ]
  },
  {
    "id": "960246638",
    "name": "Nhà Hàng Wrap&Roll",
    "category_id": 1,
    "rating": 5.0,
    "price_level": 1,
    "address": "Đường phố, TP. Hồ Chí Minh",
    "lat": 10.7732882,
    "lon": 106.7040253,
    "phone_number": "",
    "open_hours": "08:00 - 22:00",
    "main_image_url": "",
    "tags": [
      "restaurant",
      "TP. Hồ Chí Minh"
    ]
  },
  {
    "id": "1001114453",
    "name": "Quán Ăn Gia Đình",
    "category_id": 2,
    "rating": 4.4,
    "price_level": 3,
    "address": "Đường phố, TP. Hồ Chí Minh",
    "lat": 10.8029924,
    "lon": 106.6995844,
    "phone_number": "",
    "open_hours": "08:00 - 22:00",
    "main_image_url": "",
    "tags": [
      "restaurant",
      "TP. Hồ Chí Minh"
    ]
  },
  {
    "id": "1001114529",
    "name": "Nhà Hàng Đồ Chay",
    "category_id": 4,
    "rating": 4.5,
    "price_level": 2,
    "address": "Đường phố, TP. Hồ Chí Minh",
    "lat": 10.8062565,
    "lon": 106.6949559,
    "phone_number": "",
    "open_hours": "08:00 - 22:00",
    "main_image_url": "",
    "tags": [
      "restaurant",
      "TP. Hồ Chí Minh"
    ]
  },
  {
    "id": "1138694903",
    "name": "Nhà Hàng Crazy Buffalo",
    "category_id": 4,
    "rating": 3.8,
    "price_level": 3,
    "address": "Đường phố, TP. Hồ Chí Minh",
    "lat": 10.767375,
    "lon": 106.6941425,
    "phone_number": "",
    "open_hours": "08:00 - 22:00",
    "main_image_url": "",
    "tags": [
      "restaurant",
      "TP. Hồ Chí Minh"
    ]
  },
  {
    "id": "1138696083",
    "name": "Nhà Hàng Pizza Fixme",
    "category_id": 1,
    "rating": 4.6,
    "price_level": 3,
    "address": "Đường phố, TP. Hồ Chí Minh",
    "lat": 10.7680337,
    "lon": 106.6938158,
    "phone_number": "",
    "open_hours": "08:00 - 22:00",
    "main_image_url": "",
    "tags": [
      "restaurant",
      "TP. Hồ Chí Minh"
    ]
  },
  {
    "id": "1198177163",
    "name": "Nhà Hàng Đồ Ăn Việt Nam Aroma",
    "category_id": 4,
    "rating": 4.4,
    "price_level": 2,
    "address": "175/10-12 Đường Phạm Ngũ Lão, TP. Hồ Chí Minh",
    "lat": 10.7684684,
    "lon": 106.6938884,
    "phone_number": "+84838370447",
    "open_hours": "08:00 - 22:00",
    "main_image_url": "",
    "tags": [
      "restaurant",
      "vietnamese",
      "TP. Hồ Chí Minh"
    ]
  },
  {
    "id": "1274090545",
    "name": "Bánh Canh Hoàng Ty",
    "category_id": 4,
    "rating": 4.1,
    "price_level": 3,
    "address": "Đường phố, TP. Hồ Chí Minh",
    "lat": 10.7917311,
    "lon": 106.6915979,
    "phone_number": "",
    "open_hours": "08:00 - 22:00",
    "main_image_url": "",
    "tags": [
      "restaurant",
      "regional",
      "TP. Hồ Chí Minh"
    ]
  },
  {
    "id": "1275863725",
    "name": "Quán Ăn 7777",
    "category_id": 2,
    "rating": 4.3,
    "price_level": 1,
    "address": "Đường phố, TP. Hồ Chí Minh",
    "lat": 10.8184173,
    "lon": 106.7047992,
    "phone_number": "",
    "open_hours": "08:00 - 22:00",
    "main_image_url": "",
    "tags": [
      "restaurant",
      "asian",
      "TP. Hồ Chí Minh"
    ]
  },
  {
    "id": "1576575990",
    "name": "Nhà Hàng Tiệc Cưới Ngọc Trâm",
    "category_id": 1,
    "rating": 4.0,
    "price_level": 2,
    "address": "948 Nguyễn Văn Quá, TP. Hồ Chí Minh",
    "lat": 10.8491522,
    "lon": 106.6365739,
    "phone_number": "",
    "open_hours": "08:00 - 22:00",
    "main_image_url": "",
    "tags": [
      "restaurant",
      "TP. Hồ Chí Minh"
    ]
  },
  {
    "id": "1606198933",
    "name": "Nhà Hàng Vietnamese Kitchen",
    "category_id": 1,
    "rating": 4.0,
    "price_level": 1,
    "address": "Đường phố, TP. Hồ Chí Minh",
    "lat": 10.7666137,
    "lon": 106.6922676,
    "phone_number": "",
    "open_hours": "08:00 - 22:00",
    "main_image_url": "",
    "tags": [
      "restaurant",
      "TP. Hồ Chí Minh"
    ]
  },
  {
    "id": "1635104029",
    "name": "Nhà Hàng Lẩu Cua",
    "category_id": 1,
    "rating": 4.6,
    "price_level": 2,
    "address": "Đường phố, TP. Hồ Chí Minh",
    "lat": 10.8184378,
    "lon": 106.6990062,
    "phone_number": "",
    "open_hours": "24/7",
    "main_image_url": "",
    "tags": [
      "restaurant",
      "TP. Hồ Chí Minh"
    ]
  },
  {
    "id": "1711502024",
    "name": "Nhà Hàng Jaspas",
    "category_id": 2,
    "rating": 4.0,
    "price_level": 2,
    "address": "Đường phố, TP. Hồ Chí Minh",
    "lat": 10.778168,
    "lon": 106.7037041,
    "phone_number": "",
    "open_hours": "08:00 - 22:00",
    "main_image_url": "",
    "tags": [
      "restaurant",
      "TP. Hồ Chí Minh"
    ]
  },
  {
    "id": "1770193906",
    "name": "Nhà Hàng Shri Lounge",
    "category_id": 1,
    "rating": 4.1,
    "price_level": 1,
    "address": "72-74 Nguyễn Thị Minh Khai, TP. Hồ Chí Minh",
    "lat": 10.7826304,
    "lon": 106.6972822,
    "phone_number": "",
    "open_hours": "08:00 - 22:00",
    "main_image_url": "",
    "tags": [
      "restaurant",
      "international",
      "TP. Hồ Chí Minh"
    ]
  },
  {
    "id": "1770305170",
    "name": "Nhà Hàng Ấn Độ Curry Rice",
    "category_id": 1,
    "rating": 4.8,
    "price_level": 2,
    "address": "66 Đông Du, TP. Hồ Chí Minh",
    "lat": 10.7762829,
    "lon": 106.7042247,
    "phone_number": "",
    "open_hours": "08:00 - 22:00",
    "main_image_url": "",
    "tags": [
      "restaurant",
      "indian",
      "TP. Hồ Chí Minh"
    ]
  },
  {
    "id": "1770305180",
    "name": "Nhà Hàng Halal Sai Gon",
    "category_id": 1,
    "rating": 4.2,
    "price_level": 2,
    "address": "31 Đông Du, TP. Hồ Chí Minh",
    "lat": 10.7760297,
    "lon": 106.7047293,
    "phone_number": "",
    "open_hours": "10:00-22:00",
    "main_image_url": "",
    "tags": [
      "restaurant",
      "asian",
      "TP. Hồ Chí Minh"
    ]
  },
  {
    "id": "1770305230",
    "name": "Nhà Hàng Cung Đình Rex",
    "category_id": 2,
    "rating": 3.8,
    "price_level": 1,
    "address": "146 Đường Pasteur, TP. Hồ Chí Minh",
    "lat": 10.7754972,
    "lon": 106.7007063,
    "phone_number": "",
    "open_hours": "08:00 - 22:00",
    "main_image_url": "",
    "tags": [
      "restaurant",
      "vietnamese",
      "TP. Hồ Chí Minh"
    ]
  },
  {
    "id": "310727632",
    "name": "Cửa Hàng Bánh Tôm Hồ Tây",
    "category_id": 3,
    "rating": 4.1,
    "price_level": 1,
    "address": "Đường phố, Hà Nội",
    "lat": 21.0473212,
    "lon": 105.8376261,
    "phone_number": "",
    "open_hours": "08:00 - 22:00",
    "main_image_url": "",
    "tags": [
      "restaurant",
      "Hà Nội"
    ]
  },
  {
    "id": "442030353",
    "name": "Nhà Hàng Chay Phương Nam",
    "category_id": 3,
    "rating": 4.4,
    "price_level": 3,
    "address": "Đường phố, Hà Nội",
    "lat": 21.0222319,
    "lon": 105.84695,
    "phone_number": "",
    "open_hours": "08:00 - 22:00",
    "main_image_url": "",
    "tags": [
      "restaurant",
      "Hà Nội"
    ]
  },
  {
    "id": "442030367",
    "name": "Nhà hàng Nam Phương",
    "category_id": 1,
    "rating": 4.4,
    "price_level": 3,
    "address": "Đường phố, Hà Nội",
    "lat": 21.0217552,
    "lon": 105.8563856,
    "phone_number": "",
    "open_hours": "08:00 - 22:00",
    "main_image_url": "",
    "tags": [
      "restaurant",
      "Hà Nội"
    ]
  },
  {
    "id": "442030389",
    "name": "Nha Hang Little Italian",
    "category_id": 4,
    "rating": 4.6,
    "price_level": 2,
    "address": "Đường phố, Hà Nội",
    "lat": 21.0169539,
    "lon": 105.852831,
    "phone_number": "",
    "open_hours": "08:00 - 22:00",
    "main_image_url": "",
    "tags": [
      "restaurant",
      "Hà Nội"
    ]
  },
  {
    "id": "442031761",
    "name": "Nha Hang Indochine",
    "category_id": 4,
    "rating": 4.6,
    "price_level": 1,
    "address": "Nam Ngư, Hà Nội",
    "lat": 21.0265868,
    "lon": 105.8430053,
    "phone_number": "",
    "open_hours": "08:00 - 22:00",
    "main_image_url": "",
    "tags": [
      "restaurant",
      "Hà Nội"
    ]
  },
  {
    "id": "443000681",
    "name": "Buffet Sen Tây Hồ",
    "category_id": 1,
    "rating": 4.0,
    "price_level": 1,
    "address": "Đường phố, Hà Nội",
    "lat": 21.0741493,
    "lon": 105.8154687,
    "phone_number": "",
    "open_hours": "08:00 - 22:00",
    "main_image_url": "",
    "tags": [
      "restaurant",
      "Hà Nội"
    ]
  },
  {
    "id": "446043000",
    "name": "Trà Xuân Tửu",
    "category_id": 1,
    "rating": 4.1,
    "price_level": 2,
    "address": "Đường phố, Hà Nội",
    "lat": 21.0297549,
    "lon": 105.8277638,
    "phone_number": "",
    "open_hours": "08:00 - 22:00",
    "main_image_url": "",
    "tags": [
      "restaurant",
      "Hà Nội"
    ]
  },
  {
    "id": "446043425",
    "name": "Cây Si",
    "category_id": 3,
    "rating": 4.2,
    "price_level": 2,
    "address": "Đường phố, Hà Nội",
    "lat": 21.0288674,
    "lon": 105.8431006,
    "phone_number": "",
    "open_hours": "08:00 - 22:00",
    "main_image_url": "",
    "tags": [
      "restaurant",
      "Hà Nội"
    ]
  },
  {
    "id": "446044222",
    "name": "Nhà hàng Thành Lộc",
    "category_id": 2,
    "rating": 3.9,
    "price_level": 2,
    "address": "Đường phố, Hà Nội",
    "lat": 21.0083549,
    "lon": 105.8567708,
    "phone_number": "",
    "open_hours": "08:00 - 22:00",
    "main_image_url": "",
    "tags": [
      "restaurant",
      "Hà Nội"
    ]
  },
  {
    "id": "721788305",
    "name": "Nhà Hàng Little Hanoi",
    "category_id": 2,
    "rating": 4.7,
    "price_level": 1,
    "address": "21 Phố Hàng Gai, Hà Nội",
    "lat": 21.0321895,
    "lon": 105.850937,
    "phone_number": "",
    "open_hours": "08:00 - 22:00",
    "main_image_url": "",
    "tags": [
      "restaurant",
      "Hà Nội"
    ]
  },
  {
    "id": "721788307",
    "name": "Nhà Hàng New Day",
    "category_id": 3,
    "rating": 4.9,
    "price_level": 2,
    "address": "72 Mã Mây, Hà Nội",
    "lat": 21.0346545,
    "lon": 105.853359,
    "phone_number": "",
    "open_hours": "08:00 - 22:00",
    "main_image_url": "",
    "tags": [
      "restaurant",
      "Hà Nội"
    ]
  },
  {
    "id": "721836715",
    "name": "Quán Ăn Ngon - Phan Bội Châu",
    "category_id": 1,
    "rating": 4.1,
    "price_level": 1,
    "address": "18 Phố Phan Bội Châu, Hà Nội",
    "lat": 21.0262611,
    "lon": 105.8434161,
    "phone_number": "+84439428162",
    "open_hours": "Mo-Su 06:45-22:00",
    "main_image_url": "",
    "tags": [
      "restaurant",
      "vietnamese",
      "Hà Nội"
    ]
  },
  {
    "id": "721836727",
    "name": "Xoi Van Anh",
    "category_id": 3,
    "rating": 4.2,
    "price_level": 3,
    "address": "Đường phố, Hà Nội",
    "lat": 21.033942,
    "lon": 105.8546062,
    "phone_number": "",
    "open_hours": "08:00 - 22:00",
    "main_image_url": "",
    "tags": [
      "restaurant",
      "Hà Nội"
    ]
  },
  {
    "id": "721906714",
    "name": "Sushi Hokkaido Sachi",
    "category_id": 2,
    "rating": 4.6,
    "price_level": 3,
    "address": "33 Phố Trần Hưng Đạo, Hà Nội",
    "lat": 21.0202197,
    "lon": 105.8543053,
    "phone_number": "",
    "open_hours": "08:00 - 22:00",
    "main_image_url": "",
    "tags": [
      "restaurant",
      "Hà Nội"
    ]
  },
  {
    "id": "721906718",
    "name": "Nhà Hàng Khazaana Indian",
    "category_id": 3,
    "rating": 4.0,
    "price_level": 2,
    "address": "Đường phố, Hà Nội",
    "lat": 21.0286735,
    "lon": 105.857296,
    "phone_number": "",
    "open_hours": "08:00 - 22:00",
    "main_image_url": "",
    "tags": [
      "restaurant",
      "Hà Nội"
    ]
  },
  {
    "id": "721906721",
    "name": "Tandoor Indian Cuisine",
    "category_id": 2,
    "rating": 3.9,
    "price_level": 3,
    "address": "Phố Hàng Bè, Hà Nội",
    "lat": 21.0335791,
    "lon": 105.8537345,
    "phone_number": "",
    "open_hours": "08:00 - 22:00",
    "main_image_url": "",
    "tags": [
      "restaurant",
      "Hà Nội"
    ]
  },
  {
    "id": "723642240",
    "name": "Nhà Hàng Ladybird",
    "category_id": 4,
    "rating": 4.2,
    "price_level": 2,
    "address": "Đường phố, Hà Nội",
    "lat": 21.0357539,
    "lon": 105.8515631,
    "phone_number": "",
    "open_hours": "08:00 - 22:00",
    "main_image_url": "",
    "tags": [
      "restaurant",
      "Hà Nội"
    ]
  },
  {
    "id": "723642244",
    "name": "Nhà Hàng Gecko",
    "category_id": 1,
    "rating": 4.9,
    "price_level": 3,
    "address": "Đường phố, Hà Nội",
    "lat": 21.0348198,
    "lon": 105.8525664,
    "phone_number": "",
    "open_hours": "08:00 - 22:00",
    "main_image_url": "",
    "tags": [
      "restaurant",
      "Hà Nội"
    ]
  },
  {
    "id": "723671517",
    "name": "Nhà Hàng Âu Lạc Brazil II",
    "category_id": 3,
    "rating": 4.4,
    "price_level": 2,
    "address": "6a Phố Cao Bá Quát, Hà Nội",
    "lat": 21.0298564,
    "lon": 105.8409205,
    "phone_number": "",
    "open_hours": "08:00 - 22:00",
    "main_image_url": "",
    "tags": [
      "restaurant",
      "Hà Nội"
    ]
  },
  {
    "id": "723671523",
    "name": "Nhà Hàng Mediterraneo",
    "category_id": 4,
    "rating": 4.3,
    "price_level": 1,
    "address": "Đường phố, Hà Nội",
    "lat": 21.0288946,
    "lon": 105.8498777,
    "phone_number": "",
    "open_hours": "08:00 - 22:00",
    "main_image_url": "",
    "tags": [
      "restaurant",
      "Hà Nội"
    ]
  },
  {
    "id": "729406420",
    "name": "Nhà Hàng Chay & Cà Phê Thúp An",
    "category_id": 3,
    "rating": 4.7,
    "price_level": 3,
    "address": "Đường phố, Đà Nẵng",
    "lat": 16.0738518,
    "lon": 108.2032513,
    "phone_number": "",
    "open_hours": "08:00 - 22:00",
    "main_image_url": "",
    "tags": [
      "restaurant",
      "Đà Nẵng"
    ]
  },
  {
    "id": "1992479743",
    "name": "Tao Do",
    "category_id": 4,
    "rating": 4.0,
    "price_level": 2,
    "address": "Đường phố, Đà Nẵng",
    "lat": 16.0568235,
    "lon": 108.2207613,
    "phone_number": "",
    "open_hours": "08:00 - 22:00",
    "main_image_url": "",
    "tags": [
      "restaurant",
      "vietnamese",
      "Đà Nẵng"
    ]
  },
  {
    "id": "2623768438",
    "name": "Thang Bom",
    "category_id": 3,
    "rating": 4.6,
    "price_level": 1,
    "address": "171 Đường Lê Độ, Đà Nẵng",
    "lat": 16.0663525,
    "lon": 108.2019752,
    "phone_number": "+84 90 544 8446",
    "open_hours": "08:00 - 22:00",
    "main_image_url": "",
    "tags": [
      "restaurant",
      "Đà Nẵng"
    ]
  },
  {
    "id": "2747371589",
    "name": "Mr Duc's",
    "category_id": 4,
    "rating": 4.2,
    "price_level": 1,
    "address": "Đường phố, Đà Nẵng",
    "lat": 16.0660927,
    "lon": 108.2233715,
    "phone_number": "0977105588",
    "open_hours": "08:00 - 22:00",
    "main_image_url": "",
    "tags": [
      "restaurant",
      "Đà Nẵng"
    ]
  },
  {
    "id": "2988814633",
    "name": "Bánh bèo 291 Nguyễn Chí Thanh",
    "category_id": 2,
    "rating": 4.4,
    "price_level": 1,
    "address": "291 Nguyễn Chí Thanh, Đà Nẵng",
    "lat": 16.066938,
    "lon": 108.220909,
    "phone_number": "",
    "open_hours": "08:00 - 22:00",
    "main_image_url": "",
    "tags": [
      "restaurant",
      "vietnamese",
      "Đà Nẵng"
    ]
  },
  {
    "id": "2988973933",
    "name": "N&M",
    "category_id": 2,
    "rating": 4.2,
    "price_level": 3,
    "address": "Đường phố, Đà Nẵng",
    "lat": 16.0426825,
    "lon": 108.2243357,
    "phone_number": "",
    "open_hours": "08:00 - 22:00",
    "main_image_url": "",
    "tags": [
      "restaurant",
      "Đà Nẵng"
    ]
  },
  {
    "id": "2988974233",
    "name": "Phúc Đại Hỷ",
    "category_id": 2,
    "rating": 4.6,
    "price_level": 2,
    "address": "Đường phố, Đà Nẵng",
    "lat": 16.04255,
    "lon": 108.22279,
    "phone_number": "",
    "open_hours": "08:00 - 22:00",
    "main_image_url": "",
    "tags": [
      "restaurant",
      "Đà Nẵng"
    ]
  },
  {
    "id": "2988974433",
    "name": "Phú Gia 1",
    "category_id": 4,
    "rating": 4.1,
    "price_level": 1,
    "address": "Đường phố, Đà Nẵng",
    "lat": 16.042804,
    "lon": 108.222844,
    "phone_number": "",
    "open_hours": "08:00 - 22:00",
    "main_image_url": "",
    "tags": [
      "restaurant",
      "Đà Nẵng"
    ]
  },
  {
    "id": "2988975433",
    "name": "Queen's Palace",
    "category_id": 3,
    "rating": 4.1,
    "price_level": 1,
    "address": "Đường phố, Đà Nẵng",
    "lat": 16.044319,
    "lon": 108.223638,
    "phone_number": "",
    "open_hours": "08:00 - 22:00",
    "main_image_url": "",
    "tags": [
      "restaurant",
      "Đà Nẵng"
    ]
  },
  {
    "id": "2988975533",
    "name": "Cát Tường",
    "category_id": 4,
    "rating": 4.3,
    "price_level": 3,
    "address": "Đường phố, Đà Nẵng",
    "lat": 16.043515,
    "lon": 108.22411,
    "phone_number": "",
    "open_hours": "08:00 - 22:00",
    "main_image_url": "",
    "tags": [
      "restaurant",
      "Đà Nẵng"
    ]
  },
  {
    "id": "2476183659",
    "name": "Bia Hơi-Lẩu chó",
    "category_id": 3,
    "rating": 4.3,
    "price_level": 1,
    "address": "Đường phố, Hải Phòng",
    "lat": 20.832965,
    "lon": 106.6935216,
    "phone_number": "",
    "open_hours": "08:00 - 22:00",
    "main_image_url": "",
    "tags": [
      "restaurant",
      "Hải Phòng"
    ]
  },
  {
    "id": "2476237969",
    "name": "Bia 166 Quan Nam",
    "category_id": 2,
    "rating": 4.3,
    "price_level": 2,
    "address": "Đường phố, Hải Phòng",
    "lat": 20.832157,
    "lon": 106.6936161,
    "phone_number": "",
    "open_hours": "08:00 - 22:00",
    "main_image_url": "",
    "tags": [
      "restaurant",
      "Hải Phòng"
    ]
  },
  {
    "id": "2476456854",
    "name": "Mai Hồng Phúc",
    "category_id": 3,
    "rating": 4.7,
    "price_level": 2,
    "address": "Đường phố, Hải Phòng",
    "lat": 20.8295601,
    "lon": 106.6979555,
    "phone_number": "",
    "open_hours": "08:00 - 22:00",
    "main_image_url": "",
    "tags": [
      "restaurant",
      "Hải Phòng"
    ]
  },
  {
    "id": "2476456856",
    "name": "Quán Ăn Thiên Nhiên",
    "category_id": 3,
    "rating": 4.3,
    "price_level": 3,
    "address": "Đường phố, Hải Phòng",
    "lat": 20.8293604,
    "lon": 106.6966923,
    "phone_number": "",
    "open_hours": "08:00 - 22:00",
    "main_image_url": "",
    "tags": [
      "restaurant",
      "Hải Phòng"
    ]
  },
  {
    "id": "2476810890",
    "name": "CƠM BÌNH DÂN",
    "category_id": 3,
    "rating": 4.8,
    "price_level": 2,
    "address": "Đường phố, Hải Phòng",
    "lat": 20.8295066,
    "lon": 106.7172965,
    "phone_number": "",
    "open_hours": "08:00 - 22:00",
    "main_image_url": "",
    "tags": [
      "restaurant",
      "Hải Phòng"
    ]
  },
  {
    "id": "2476810895",
    "name": "VIB BANK",
    "category_id": 3,
    "rating": 4.1,
    "price_level": 3,
    "address": "Đường phố, Hải Phòng",
    "lat": 20.8289591,
    "lon": 106.7116673,
    "phone_number": "",
    "open_hours": "08:00 - 22:00",
    "main_image_url": "",
    "tags": [
      "restaurant",
      "Hải Phòng"
    ]
  },
  {
    "id": "2476810907",
    "name": "CƠM BÌNH DÂN",
    "category_id": 3,
    "rating": 3.8,
    "price_level": 2,
    "address": "Đường phố, Hải Phòng",
    "lat": 20.8290305,
    "lon": 106.7080438,
    "phone_number": "",
    "open_hours": "08:00 - 22:00",
    "main_image_url": "",
    "tags": [
      "restaurant",
      "Hải Phòng"
    ]
  },
  {
    "id": "2481986819",
    "name": "Trọng Khách",
    "category_id": 1,
    "rating": 4.5,
    "price_level": 3,
    "address": "Đường phố, Hải Phòng",
    "lat": 20.8552127,
    "lon": 106.6782701,
    "phone_number": "",
    "open_hours": "08:00 - 22:00",
    "main_image_url": "",
    "tags": [
      "restaurant",
      "Hải Phòng"
    ]
  },
  {
    "id": "2482094600",
    "name": "Nhà hàng thiên lộc",
    "category_id": 1,
    "rating": 4.1,
    "price_level": 1,
    "address": "Đường phố, Hải Phòng",
    "lat": 20.8395242,
    "lon": 106.6942718,
    "phone_number": "",
    "open_hours": "08:00 - 22:00",
    "main_image_url": "",
    "tags": [
      "restaurant",
      "Hải Phòng"
    ]
  },
  {
    "id": "2482100740",
    "name": "Nhà Hàng Hương Cảng",
    "category_id": 3,
    "rating": 4.8,
    "price_level": 3,
    "address": "Đường phố, Hải Phòng",
    "lat": 20.8298351,
    "lon": 106.698544,
    "phone_number": "",
    "open_hours": "08:00 - 22:00",
    "main_image_url": "",
    "tags": [
      "restaurant",
      "Hải Phòng"
    ]
  },
  {
    "id": "540825554",
    "name": "Nhà hàng Cồn Khương",
    "category_id": 4,
    "rating": 4.8,
    "price_level": 3,
    "address": "Đường phố, Cần Thơ",
    "lat": 10.0618048,
    "lon": 105.7833848,
    "phone_number": "",
    "open_hours": "08:00 - 22:00",
    "main_image_url": "",
    "tags": [
      "restaurant",
      "Cần Thơ"
    ]
  },
  {
    "id": "1777621785",
    "name": "Miền Tây Tửu Quán",
    "category_id": 4,
    "rating": 4.3,
    "price_level": 1,
    "address": "Mậu Thân, Cần Thơ",
    "lat": 10.0306237,
    "lon": 105.7756103,
    "phone_number": "",
    "open_hours": "08:00 - 22:00",
    "main_image_url": "",
    "tags": [
      "restaurant",
      "Cần Thơ"
    ]
  },
  {
    "id": "1777852665",
    "name": "quán Tre Xanh",
    "category_id": 2,
    "rating": 4.5,
    "price_level": 1,
    "address": "Trần Văn Hoài, Cần Thơ",
    "lat": 10.0259345,
    "lon": 105.7716231,
    "phone_number": "",
    "open_hours": "08:00 - 22:00",
    "main_image_url": "",
    "tags": [
      "restaurant",
      "Cần Thơ"
    ]
  },
  {
    "id": "1778046257",
    "name": "quán ăn 142",
    "category_id": 4,
    "rating": 4.5,
    "price_level": 1,
    "address": "hẻm 142, Mậu Thân, Cần Thơ",
    "lat": 10.0314402,
    "lon": 105.7759508,
    "phone_number": "",
    "open_hours": "08:00 - 22:00",
    "main_image_url": "",
    "tags": [
      "restaurant",
      "Cần Thơ"
    ]
  },
  {
    "id": "1778802352",
    "name": "nhà hàng Long Phụng",
    "category_id": 1,
    "rating": 4.5,
    "price_level": 3,
    "address": "Đường phố, Cần Thơ",
    "lat": 10.0346964,
    "lon": 105.7863178,
    "phone_number": "",
    "open_hours": "08:00 - 22:00",
    "main_image_url": "",
    "tags": [
      "restaurant",
      "Cần Thơ"
    ]
  },
  {
    "id": "1778804714",
    "name": "quán cơm 16",
    "category_id": 3,
    "rating": 4.9,
    "price_level": 3,
    "address": "Nguyễn Thái Học, Cần Thơ",
    "lat": 10.0327233,
    "lon": 105.7856855,
    "phone_number": "",
    "open_hours": "08:00 - 22:00",
    "main_image_url": "",
    "tags": [
      "restaurant",
      "Cần Thơ"
    ]
  },
  {
    "id": "1778805929",
    "name": "cơm chay Pháp Hoa",
    "category_id": 3,
    "rating": 4.3,
    "price_level": 1,
    "address": "Đường phố, Cần Thơ",
    "lat": 10.0320819,
    "lon": 105.7871855,
    "phone_number": "",
    "open_hours": "08:00 - 22:00",
    "main_image_url": "",
    "tags": [
      "restaurant",
      "Cần Thơ"
    ]
  },
  {
    "id": "1780101689",
    "name": "Phở Giành",
    "category_id": 4,
    "rating": 4.3,
    "price_level": 3,
    "address": "Đường phố, Cần Thơ",
    "lat": 10.0264212,
    "lon": 105.7764484,
    "phone_number": "",
    "open_hours": "08:00 - 22:00",
    "main_image_url": "",
    "tags": [
      "restaurant",
      "Cần Thơ"
    ]
  },
  {
    "id": "1780119426",
    "name": "quán ăn 116",
    "category_id": 4,
    "rating": 4.9,
    "price_level": 3,
    "address": "3/2, Cần Thơ",
    "lat": 10.0291846,
    "lon": 105.7718954,
    "phone_number": "",
    "open_hours": "08:00 - 22:00",
    "main_image_url": "",
    "tags": [
      "restaurant",
      "Cần Thơ"
    ]
  },
  {
    "id": "1781214424",
    "name": "nhà hàng Song Ngọc",
    "category_id": 4,
    "rating": 4.2,
    "price_level": 3,
    "address": "Mậu Thân, Cần Thơ",
    "lat": 10.0348842,
    "lon": 105.7733603,
    "phone_number": "",
    "open_hours": "08:00 - 22:00",
    "main_image_url": "",
    "tags": [
      "restaurant",
      "Cần Thơ"
    ]
  },
  {
    "id": "5006257421",
    "name": "Nhà Lá lấp vò",
    "category_id": 1,
    "rating": 4.6,
    "price_level": 3,
    "address": "Đường phố, An Giang",
    "lat": 10.3584256,
    "lon": 105.5151252,
    "phone_number": "",
    "open_hours": "08:00 - 22:00",
    "main_image_url": "",
    "tags": [
      "restaurant",
      "An Giang"
    ]
  },
  {
    "id": "5779219753",
    "name": "bánh canh vĩnh trung",
    "category_id": 1,
    "rating": 4.8,
    "price_level": 2,
    "address": "Đường phố, An Giang",
    "lat": 10.3943369,
    "lon": 105.4218737,
    "phone_number": "",
    "open_hours": "08:00 - 22:00",
    "main_image_url": "",
    "tags": [
      "restaurant",
      "An Giang"
    ]
  },
  {
    "id": "6290963587",
    "name": "Quán ăn cây dừa",
    "category_id": 4,
    "rating": 4.1,
    "price_level": 3,
    "address": "Đường phố, An Giang",
    "lat": 10.3728962,
    "lon": 105.4439162,
    "phone_number": "",
    "open_hours": "08:00 - 22:00",
    "main_image_url": "",
    "tags": [
      "restaurant",
      "An Giang"
    ]
  },
  {
    "id": "6290970286",
    "name": "quán",
    "category_id": 1,
    "rating": 4.2,
    "price_level": 2,
    "address": "Đường phố, An Giang",
    "lat": 10.372752,
    "lon": 105.443756,
    "phone_number": "",
    "open_hours": "08:00 - 22:00",
    "main_image_url": "",
    "tags": [
      "restaurant",
      "An Giang"
    ]
  },
  {
    "id": "6334910085",
    "name": "Quan chay Co Ba",
    "category_id": 2,
    "rating": 4.6,
    "price_level": 2,
    "address": "Đường phố, An Giang",
    "lat": 10.3754312,
    "lon": 105.4412311,
    "phone_number": "",
    "open_hours": "08:00 - 22:00",
    "main_image_url": "",
    "tags": [
      "restaurant",
      "An Giang"
    ]
  },
  {
    "id": "6768982685",
    "name": "Lang Toi",
    "category_id": 3,
    "rating": 4.6,
    "price_level": 1,
    "address": "Đường phố, An Giang",
    "lat": 10.3790875,
    "lon": 105.4424087,
    "phone_number": "",
    "open_hours": "08:00 - 22:00",
    "main_image_url": "",
    "tags": [
      "restaurant",
      "An Giang"
    ]
  },
  {
    "id": "10075244235",
    "name": "Mì Cay Chinno Long Xuyên",
    "category_id": 1,
    "rating": 4.5,
    "price_level": 3,
    "address": "Số 08 Đường Lý Thái Tổ, An Giang",
    "lat": 10.3751014,
    "lon": 105.4393508,
    "phone_number": "0964961972",
    "open_hours": "Mo-Sa 08:00-23:00",
    "main_image_url": "",
    "tags": [
      "restaurant",
      "korean",
      "hotpot",
      "fast_food",
      "noodles",
      "rice",
      "An Giang"
    ]
  },
  {
    "id": "2423724412",
    "name": "Phở Thanh Hà",
    "category_id": 4,
    "rating": 3.9,
    "price_level": 3,
    "address": "Đường phố, Bà Rịa - Vũng Tàu",
    "lat": 10.4964994,
    "lon": 107.1693048,
    "phone_number": "",
    "open_hours": "08:00 - 22:00",
    "main_image_url": "",
    "tags": [
      "restaurant",
      "vietnamese",
      "Bà Rịa - Vũng Tàu"
    ]
  },
  {
    "id": "2941362301",
    "name": "Bach Ngan Hotel",
    "category_id": 1,
    "rating": 4.9,
    "price_level": 2,
    "address": "7 Đường phố, Bà Rịa - Vũng Tàu",
    "lat": 10.4892077,
    "lon": 107.175485,
    "phone_number": "",
    "open_hours": "08:00 - 22:00",
    "main_image_url": "",
    "tags": [
      "restaurant",
      "Bà Rịa - Vũng Tàu"
    ]
  },
  {
    "id": "2941542103",
    "name": "Gia Truong",
    "category_id": 3,
    "rating": 4.7,
    "price_level": 1,
    "address": "Đường phố, Bà Rịa - Vũng Tàu",
    "lat": 10.491455,
    "lon": 107.169328,
    "phone_number": "",
    "open_hours": "08:00 - 22:00",
    "main_image_url": "",
    "tags": [
      "restaurant",
      "Bà Rịa - Vũng Tàu"
    ]
  },
  {
    "id": "2941550001",
    "name": "Canh dong hoang",
    "category_id": 3,
    "rating": 4.0,
    "price_level": 2,
    "address": "Đường phố, Bà Rịa - Vũng Tàu",
    "lat": 10.484037,
    "lon": 107.1755,
    "phone_number": "",
    "open_hours": "08:00 - 22:00",
    "main_image_url": "",
    "tags": [
      "restaurant",
      "Bà Rịa - Vũng Tàu"
    ]
  },
  {
    "id": "4279382389",
    "name": "Chè các thứ",
    "category_id": 3,
    "rating": 4.7,
    "price_level": 1,
    "address": "Đường phố, Bà Rịa - Vũng Tàu",
    "lat": 10.4941454,
    "lon": 107.1687357,
    "phone_number": "",
    "open_hours": "08:00 - 22:00",
    "main_image_url": "",
    "tags": [
      "restaurant",
      "Bà Rịa - Vũng Tàu"
    ]
  },
  {
    "id": "4600268190",
    "name": "cam chay Thiên Tâm",
    "category_id": 4,
    "rating": 4.0,
    "price_level": 1,
    "address": "Đường phố, Bà Rịa - Vũng Tàu",
    "lat": 10.4929588,
    "lon": 107.1733412,
    "phone_number": "",
    "open_hours": "08:00 - 22:00",
    "main_image_url": "",
    "tags": [
      "restaurant",
      "Bà Rịa - Vũng Tàu"
    ]
  },
  {
    "id": "5049823123",
    "name": "Mỹ Cảnh",
    "category_id": 4,
    "rating": 3.8,
    "price_level": 2,
    "address": "Đường phố, Bà Rịa - Vũng Tàu",
    "lat": 10.4981561,
    "lon": 107.1790791,
    "phone_number": "",
    "open_hours": "08:00 - 22:00",
    "main_image_url": "",
    "tags": [
      "restaurant",
      "Bà Rịa - Vũng Tàu"
    ]
  },
  {
    "id": "5595863032",
    "name": "Phở Lan",
    "category_id": 1,
    "rating": 5.0,
    "price_level": 2,
    "address": "Đường phố, Bà Rịa - Vũng Tàu",
    "lat": 10.4984313,
    "lon": 107.1650728,
    "phone_number": "",
    "open_hours": "08:00 - 22:00",
    "main_image_url": "",
    "tags": [
      "restaurant",
      "Bà Rịa - Vũng Tàu"
    ]
  },
  {
    "id": "5606335918",
    "name": "Nhà Hàng Sông Gành Hào",
    "category_id": 2,
    "rating": 4.9,
    "price_level": 2,
    "address": "Đường phố, Bà Rịa - Vũng Tàu",
    "lat": 10.4826116,
    "lon": 107.1750127,
    "phone_number": "",
    "open_hours": "08:00 - 22:00",
    "main_image_url": "",
    "tags": [
      "restaurant",
      "Bà Rịa - Vũng Tàu"
    ]
  },
  {
    "id": "5619500637",
    "name": "Gia Hân",
    "category_id": 2,
    "rating": 4.3,
    "price_level": 1,
    "address": "Đường phố, Bà Rịa - Vũng Tàu",
    "lat": 10.4899105,
    "lon": 107.1718619,
    "phone_number": "",
    "open_hours": "08:00 - 22:00",
    "main_image_url": "",
    "tags": [
      "restaurant",
      "Bà Rịa - Vũng Tàu"
    ]
  },
  {
    "id": "4162304391",
    "name": "Bún bò cay ÁNH NGUYỆT",
    "category_id": 3,
    "rating": 3.8,
    "price_level": 1,
    "address": "Cao Văn Lầu, Bạc Liêu",
    "lat": 9.2805764,
    "lon": 105.7271213,
    "phone_number": "",
    "open_hours": "08:00 - 22:00",
    "main_image_url": "",
    "tags": [
      "restaurant",
      "Bạc Liêu"
    ]
  },
  {
    "id": "4162328889",
    "name": "Bún Bò Cay ÁNH NGUYỆT",
    "category_id": 1,
    "rating": 4.4,
    "price_level": 2,
    "address": "Cao Văn Lầu, Bạc Liêu",
    "lat": 9.2805343,
    "lon": 105.7270863,
    "phone_number": "",
    "open_hours": "08:00 - 22:00",
    "main_image_url": "",
    "tags": [
      "restaurant",
      "Bạc Liêu"
    ]
  },
  {
    "id": "11002690871",
    "name": "Lạc Dining",
    "category_id": 4,
    "rating": 4.2,
    "price_level": 2,
    "address": "152a/4 Nguyễn Đình Chiểu, Bạc Liêu",
    "lat": 9.2938231,
    "lon": 105.7176374,
    "phone_number": "0942209923",
    "open_hours": "7 am - 10 pm",
    "main_image_url": "",
    "tags": [
      "restaurant",
      "international",
      "hiện_đại",
      "Bạc Liêu"
    ]
  },
  {
    "id": "5841414785",
    "name": "Chè Ngon",
    "category_id": 1,
    "rating": 4.8,
    "price_level": 1,
    "address": "336 Nguyễn Thị Lưu, Bắc Giang",
    "lat": 21.2838498,
    "lon": 106.2036366,
    "phone_number": "+841666555268",
    "open_hours": "Mo-Su 08:00-10:00",
    "main_image_url": "",
    "tags": [
      "restaurant",
      "Bắc Giang"
    ]
  },
  {
    "id": "12672569532",
    "name": "Phở Lý",
    "category_id": 4,
    "rating": 4.2,
    "price_level": 2,
    "address": "Đường phố, Bắc Kạn",
    "lat": 22.13904,
    "lon": 105.8311798,
    "phone_number": "",
    "open_hours": "08:00 - 22:00",
    "main_image_url": "",
    "tags": [
      "restaurant",
      "vietnamese",
      "Bắc Kạn"
    ]
  },
  {
    "id": "12682576521",
    "name": "Nga Cầu",
    "category_id": 4,
    "rating": 4.9,
    "price_level": 1,
    "address": "17 Nguyễn Văn Thoát, Bắc Kạn",
    "lat": 22.1434534,
    "lon": 105.8335115,
    "phone_number": "",
    "open_hours": "08:00 - 22:00",
    "main_image_url": "",
    "tags": [
      "restaurant",
      "vietnamese",
      "Bắc Kạn"
    ]
  },
  {
    "id": "12682612993",
    "name": "Quán Tuân Bép",
    "category_id": 2,
    "rating": 4.0,
    "price_level": 1,
    "address": "21 Nguyễn Văn Thoát, Bắc Kạn",
    "lat": 22.143405,
    "lon": 105.8336164,
    "phone_number": "",
    "open_hours": "08:00 - 22:00",
    "main_image_url": "",
    "tags": [
      "restaurant",
      "vietnamese",
      "Bắc Kạn"
    ]
  },
  {
    "id": "4713519891",
    "name": "Nhà hàng Tây Bắc",
    "category_id": 2,
    "rating": 4.8,
    "price_level": 2,
    "address": "Đường phố, Bắc Ninh",
    "lat": 21.1514044,
    "lon": 106.1546076,
    "phone_number": "",
    "open_hours": "08:00 - 22:00",
    "main_image_url": "",
    "tags": [
      "restaurant",
      "Bắc Ninh"
    ]
  },
  {
    "id": "5285140721",
    "name": "Nhà hàng Hà Phong",
    "category_id": 1,
    "rating": 4.6,
    "price_level": 3,
    "address": "Đường Nguyễn Cao, Bắc Ninh",
    "lat": 21.1744616,
    "lon": 106.057696,
    "phone_number": "02223824333",
    "open_hours": "08:00 - 22:00",
    "main_image_url": "",
    "tags": [
      "restaurant",
      "fine_dining",
      "Bắc Ninh"
    ]
  },
  {
    "id": "5548427990",
    "name": "육거리 식당",
    "category_id": 1,
    "rating": 4.2,
    "price_level": 1,
    "address": "Đường phố, Bắc Ninh",
    "lat": 21.1772783,
    "lon": 106.0706013,
    "phone_number": "",
    "open_hours": "08:00 - 22:00",
    "main_image_url": "",
    "tags": [
      "restaurant",
      "Bắc Ninh"
    ]
  },
  {
    "id": "5550008315",
    "name": "Kotteji",
    "category_id": 4,
    "rating": 4.0,
    "price_level": 2,
    "address": "Đường Ngọc Hân Công Chúa, Bắc Ninh",
    "lat": 21.1723716,
    "lon": 106.0590877,
    "phone_number": "",
    "open_hours": "08:00 - 22:00",
    "main_image_url": "",
    "tags": [
      "restaurant",
      "Bắc Ninh"
    ]
  },
  {
    "id": "5617312023",
    "name": "한국왕족발보쌈",
    "category_id": 1,
    "rating": 4.4,
    "price_level": 2,
    "address": "Đường phố, Bắc Ninh",
    "lat": 21.1726505,
    "lon": 106.0590998,
    "phone_number": "",
    "open_hours": "08:00 - 22:00",
    "main_image_url": "",
    "tags": [
      "restaurant",
      "Bắc Ninh"
    ]
  },
  {
    "id": "5626543435",
    "name": "Bún Chả Bà Vạn",
    "category_id": 1,
    "rating": 3.9,
    "price_level": 2,
    "address": "2 Phố Vũ Kiệt, Bắc Ninh",
    "lat": 21.1825609,
    "lon": 106.0656471,
    "phone_number": "",
    "open_hours": "08:00 - 22:00",
    "main_image_url": "",
    "tags": [
      "restaurant",
      "Bắc Ninh"
    ]
  },
  {
    "id": "5753911865",
    "name": "바보아저씨 돈까스",
    "category_id": 1,
    "rating": 4.8,
    "price_level": 2,
    "address": "Đường phố, Bắc Ninh",
    "lat": 21.1735854,
    "lon": 106.0619504,
    "phone_number": "",
    "open_hours": "08:00 - 22:00",
    "main_image_url": "",
    "tags": [
      "restaurant",
      "Bắc Ninh"
    ]
  },
  {
    "id": "6545253553",
    "name": "Nhà hàng Nhật Bản, Hàn Quốc, Sakura Sushi",
    "category_id": 2,
    "rating": 4.8,
    "price_level": 1,
    "address": "Đường phố, Bắc Ninh",
    "lat": 21.1765586,
    "lon": 106.065358,
    "phone_number": "",
    "open_hours": "08:00 - 22:00",
    "main_image_url": "",
    "tags": [
      "restaurant",
      "Bắc Ninh"
    ]
  },
  {
    "id": "6545253554",
    "name": "Single hotpot (Lẩu 1 người)",
    "category_id": 3,
    "rating": 3.9,
    "price_level": 3,
    "address": "Đường phố, Bắc Ninh",
    "lat": 21.1767687,
    "lon": 106.06524,
    "phone_number": "",
    "open_hours": "08:00 - 22:00",
    "main_image_url": "",
    "tags": [
      "restaurant",
      "Bắc Ninh"
    ]
  },
  {
    "id": "6545253555",
    "name": "Bittet Bùi",
    "category_id": 2,
    "rating": 4.0,
    "price_level": 2,
    "address": "Đường phố, Bắc Ninh",
    "lat": 21.1770705,
    "lon": 106.0650301,
    "phone_number": "",
    "open_hours": "08:00 - 22:00",
    "main_image_url": "",
    "tags": [
      "restaurant",
      "Bắc Ninh"
    ]
  },
  {
    "id": "2380063712",
    "name": "Sea Food Restaurant",
    "category_id": 1,
    "rating": 4.4,
    "price_level": 1,
    "address": "Đường phố, Bến Tre",
    "lat": 10.2565634,
    "lon": 106.3660026,
    "phone_number": "",
    "open_hours": "08:00 - 22:00",
    "main_image_url": "",
    "tags": [
      "restaurant",
      "Bến Tre"
    ]
  },
  {
    "id": "2389065626",
    "name": "Hủ tiếu pate",
    "category_id": 4,
    "rating": 4.4,
    "price_level": 1,
    "address": "Đường phố, Bến Tre",
    "lat": 10.2430841,
    "lon": 106.3750143,
    "phone_number": "",
    "open_hours": "08:00 - 22:00",
    "main_image_url": "",
    "tags": [
      "restaurant",
      "vietnamese",
      "Bến Tre"
    ]
  },
  {
    "id": "2389071211",
    "name": "Bánh mì - bún bò Huế Hồng Thu",
    "category_id": 3,
    "rating": 3.9,
    "price_level": 2,
    "address": "Đường phố, Bến Tre",
    "lat": 10.2360709,
    "lon": 106.3783939,
    "phone_number": "",
    "open_hours": "08:00 - 22:00",
    "main_image_url": "",
    "tags": [
      "restaurant",
      "vietnamese",
      "Bến Tre"
    ]
  },
  {
    "id": "2392312703",
    "name": "Bánh ướt Biếu Ký",
    "category_id": 2,
    "rating": 4.0,
    "price_level": 3,
    "address": "Đường phố, Bến Tre",
    "lat": 10.2360632,
    "lon": 106.3782418,
    "phone_number": "",
    "open_hours": "08:00 - 22:00",
    "main_image_url": "",
    "tags": [
      "restaurant",
      "vietnamese",
      "Bến Tre"
    ]
  },
  {
    "id": "2392332266",
    "name": "Bún thịt nướng",
    "category_id": 1,
    "rating": 4.8,
    "price_level": 1,
    "address": "Đường phố, Bến Tre",
    "lat": 10.2364011,
    "lon": 106.3721907,
    "phone_number": "",
    "open_hours": "Mo-Su 17:00-21:00",
    "main_image_url": "",
    "tags": [
      "restaurant",
      "vietnamese",
      "Bến Tre"
    ]
  },
  {
    "id": "2392344390",
    "name": "Cơm chay chùa Viên Minh",
    "category_id": 4,
    "rating": 4.0,
    "price_level": 2,
    "address": "Đường phố, Bến Tre",
    "lat": 10.2349705,
    "lon": 106.3639403,
    "phone_number": "",
    "open_hours": "08:00 - 22:00",
    "main_image_url": "",
    "tags": [
      "restaurant",
      "Bến Tre"
    ]
  },
  {
    "id": "2400257612",
    "name": "Quán Bạn",
    "category_id": 1,
    "rating": 4.9,
    "price_level": 2,
    "address": "Đường phố, Bến Tre",
    "lat": 10.2355293,
    "lon": 106.3637976,
    "phone_number": "",
    "open_hours": "08:00 - 22:00",
    "main_image_url": "",
    "tags": [
      "restaurant",
      "vietnamese",
      "Bến Tre"
    ]
  },
  {
    "id": "2431950428",
    "name": "Bún riêu Thảo",
    "category_id": 1,
    "rating": 4.5,
    "price_level": 3,
    "address": "Ngô Quyền, Bến Tre",
    "lat": 10.2369099,
    "lon": 106.3723306,
    "phone_number": "",
    "open_hours": "08:00 - 22:00",
    "main_image_url": "",
    "tags": [
      "restaurant",
      "vietnamese",
      "Bến Tre"
    ]
  },
  {
    "id": "3847288356",
    "name": "Ben Tre Floating Restaurant",
    "category_id": 3,
    "rating": 4.3,
    "price_level": 2,
    "address": "Đường phố, Bến Tre",
    "lat": 10.2329878,
    "lon": 106.3686418,
    "phone_number": "",
    "open_hours": "08:00 - 22:00",
    "main_image_url": "",
    "tags": [
      "restaurant",
      "regional",
      "Bến Tre"
    ]
  },
  {
    "id": "4105395003",
    "name": "Hùng Vương",
    "category_id": 4,
    "rating": 4.3,
    "price_level": 3,
    "address": "Hùng Vương, Bến Tre",
    "lat": 10.2345939,
    "lon": 106.3742792,
    "phone_number": "",
    "open_hours": "Mo-Su 07:00-22:00",
    "main_image_url": "",
    "tags": [
      "restaurant",
      "diner",
      "breakfast",
      "coffee_shop",
      "noodles",
      "deli",
      "Bến Tre"
    ]
  },
  {
    "id": "7385064286",
    "name": "QA-Câu Cá Tôm-DT749B-Ấp Tiên Phong- Long Hoà- Dầu Tiếng- Bình Dương",
    "category_id": 4,
    "rating": 4.6,
    "price_level": 2,
    "address": "Đường phố, Bình Dương",
    "lat": 11.3192013,
    "lon": 106.4822786,
    "phone_number": "",
    "open_hours": "08:00 - 22:00",
    "main_image_url": "",
    "tags": [
      "restaurant",
      "Bình Dương"
    ]
  },
  {
    "id": "7400390085",
    "name": "QA-Thuỷ Trúc-Ấp Tân Đức- Minh Tân- Dầu Tiếng-0989101859",
    "category_id": 3,
    "rating": 4.1,
    "price_level": 2,
    "address": "Đường phố, Bình Dương",
    "lat": 11.4056535,
    "lon": 106.4501173,
    "phone_number": "",
    "open_hours": "08:00 - 22:00",
    "main_image_url": "",
    "tags": [
      "restaurant",
      "Bình Dương"
    ]
  },
  {
    "id": "7400495685",
    "name": "QA-Lẩu Mini 49k-Ấp Bình Thới-Định An-Dầu Tiếng",
    "category_id": 4,
    "rating": 4.2,
    "price_level": 3,
    "address": "Đường phố, Bình Dương",
    "lat": 11.365987,
    "lon": 106.4293265,
    "phone_number": "",
    "open_hours": "08:00 - 22:00",
    "main_image_url": "",
    "tags": [
      "restaurant",
      "Bình Dương"
    ]
  },
  {
    "id": "7404438685",
    "name": "QA-Lẩu Dê Cây Xanh-Ấp Chót Đồng- An Lập- Dầu Tiếng-Bình Dương-0396606619",
    "category_id": 1,
    "rating": 4.7,
    "price_level": 3,
    "address": "Đường phố, Bình Dương",
    "lat": 11.2413409,
    "lon": 106.4819808,
    "phone_number": "",
    "open_hours": "08:00 - 22:00",
    "main_image_url": "",
    "tags": [
      "restaurant",
      "Bình Dương"
    ]
  },
  {
    "id": "7404728987",
    "name": "QA-Hồng Phước-Ấp Định Thọ- Định Hiệp- Dầu Tiếng-Bình Dương-0392284750",
    "category_id": 3,
    "rating": 4.0,
    "price_level": 1,
    "address": "Đường phố, Bình Dương",
    "lat": 11.3103935,
    "lon": 106.4348909,
    "phone_number": "",
    "open_hours": "08:00 - 22:00",
    "main_image_url": "",
    "tags": [
      "restaurant",
      "Bình Dương"
    ]
  },
  {
    "id": "7409410885",
    "name": "QA-Tiếp Loan-DT750-Ấp Thị Tính- Long Hoà- Dầu Tiếng- Bình Dương-",
    "category_id": 2,
    "rating": 4.8,
    "price_level": 3,
    "address": "Đường phố, Bình Dương",
    "lat": 11.3266689,
    "lon": 106.4782981,
    "phone_number": "",
    "open_hours": "08:00 - 22:00",
    "main_image_url": "",
    "tags": [
      "restaurant",
      "Bình Dương"
    ]
  },
  {
    "id": "3193890977",
    "name": "Sông Xanh",
    "category_id": 4,
    "rating": 4.3,
    "price_level": 1,
    "address": "Đường phố, Bình Định",
    "lat": 13.8021274,
    "lon": 109.1495882,
    "phone_number": "",
    "open_hours": "08:00 - 22:00",
    "main_image_url": "",
    "tags": [
      "restaurant",
      "Bình Định"
    ]
  },
  {
    "id": "3193910898",
    "name": "Hoàng Long 2",
    "category_id": 2,
    "rating": 4.7,
    "price_level": 1,
    "address": "Đường phố, Bình Định",
    "lat": 13.8190525,
    "lon": 109.1471956,
    "phone_number": "",
    "open_hours": "08:00 - 22:00",
    "main_image_url": "",
    "tags": [
      "restaurant",
      "Bình Định"
    ]
  },
  {
    "id": "3193916306",
    "name": "Hoàng Long",
    "category_id": 2,
    "rating": 4.5,
    "price_level": 2,
    "address": "Đường phố, Bình Định",
    "lat": 13.8087824,
    "lon": 109.1473405,
    "phone_number": "",
    "open_hours": "08:00 - 22:00",
    "main_image_url": "",
    "tags": [
      "restaurant",
      "Bình Định"
    ]
  },
  {
    "id": "3201044335",
    "name": "Đức Anh",
    "category_id": 4,
    "rating": 4.6,
    "price_level": 2,
    "address": "Đường phố, Bình Định",
    "lat": 13.8092959,
    "lon": 109.1501372,
    "phone_number": "",
    "open_hours": "08:00 - 22:00",
    "main_image_url": "",
    "tags": [
      "restaurant",
      "Bình Định"
    ]
  },
  {
    "id": "3850502771",
    "name": "Gió biển",
    "category_id": 1,
    "rating": 4.5,
    "price_level": 3,
    "address": "Đường phố, Bình Định",
    "lat": 13.7626784,
    "lon": 109.2232653,
    "phone_number": "",
    "open_hours": "08:00 - 22:00",
    "main_image_url": "",
    "tags": [
      "restaurant",
      "Bình Định"
    ]
  },
  {
    "id": "3850502772",
    "name": "Tính Tam (Chay)",
    "category_id": 2,
    "rating": 4.6,
    "price_level": 2,
    "address": "Đường phố, Bình Định",
    "lat": 13.7742272,
    "lon": 109.2300254,
    "phone_number": "",
    "open_hours": "08:00 - 22:00",
    "main_image_url": "",
    "tags": [
      "restaurant",
      "Bình Định"
    ]
  },
  {
    "id": "3850506269",
    "name": "Thanh Vân",
    "category_id": 2,
    "rating": 4.7,
    "price_level": 1,
    "address": "159 Đường phố, Bình Định",
    "lat": 13.7746721,
    "lon": 109.2301115,
    "phone_number": "",
    "open_hours": "08:00 - 22:00",
    "main_image_url": "",
    "tags": [
      "restaurant",
      "Bình Định"
    ]
  },
  {
    "id": "3850507318",
    "name": "Tam thien",
    "category_id": 1,
    "rating": 5.0,
    "price_level": 2,
    "address": "Đường phố, Bình Định",
    "lat": 13.7734845,
    "lon": 109.2296955,
    "phone_number": "",
    "open_hours": "08:00 - 22:00",
    "main_image_url": "",
    "tags": [
      "restaurant",
      "Bình Định"
    ]
  },
  {
    "id": "4119717537",
    "name": "Bún Cá NGỌC LIÊN",
    "category_id": 2,
    "rating": 3.9,
    "price_level": 3,
    "address": "Đường phố, Bình Định",
    "lat": 13.7651481,
    "lon": 109.2244604,
    "phone_number": "",
    "open_hours": "08:00 - 22:00",
    "main_image_url": "",
    "tags": [
      "restaurant",
      "Bình Định"
    ]
  },
  {
    "id": "4349925190",
    "name": "Thanh Tâm",
    "category_id": 1,
    "rating": 3.9,
    "price_level": 2,
    "address": "Đường phố, Bình Định",
    "lat": 13.7636515,
    "lon": 109.2162893,
    "phone_number": "",
    "open_hours": "08:00 - 22:00",
    "main_image_url": "",
    "tags": [
      "restaurant",
      "vietnamese",
      "Bình Định"
    ]
  },
  {
    "id": "2281493554",
    "name": "Ngoc Lan",
    "category_id": 2,
    "rating": 4.1,
    "price_level": 3,
    "address": "27A Nguyễn Đình Chiểu, Bình Thuận",
    "lat": 10.9425584,
    "lon": 108.1923298,
    "phone_number": "",
    "open_hours": "08:00 - 22:00",
    "main_image_url": "",
    "tags": [
      "restaurant",
      "vietnamese",
      "russian",
      "Bình Thuận"
    ]
  },
  {
    "id": "2297186510",
    "name": "Cây Bàng",
    "category_id": 1,
    "rating": 4.4,
    "price_level": 1,
    "address": "Đường phố, Bình Thuận",
    "lat": 10.9367599,
    "lon": 108.1874878,
    "phone_number": "",
    "open_hours": "08:00 - 22:00",
    "main_image_url": "",
    "tags": [
      "restaurant",
      "vietnamese",
      "Bình Thuận"
    ]
  },
  {
    "id": "2316810990",
    "name": "Nhà hàng Sea Links",
    "category_id": 4,
    "rating": 4.7,
    "price_level": 1,
    "address": "Đường phố, Bình Thuận",
    "lat": 10.9432437,
    "lon": 108.1801868,
    "phone_number": "",
    "open_hours": "08:00 - 22:00",
    "main_image_url": "",
    "tags": [
      "restaurant",
      "Bình Thuận"
    ]
  },
  {
    "id": "2655437295",
    "name": "Chi tran",
    "category_id": 4,
    "rating": 4.4,
    "price_level": 1,
    "address": "Tôn Đức Thắng, Bình Thuận",
    "lat": 10.9389807,
    "lon": 108.1107206,
    "phone_number": "",
    "open_hours": "08:00 - 22:00",
    "main_image_url": "",
    "tags": [
      "restaurant",
      "Bình Thuận"
    ]
  },
  {
    "id": "2982182333",
    "name": "Bao Tran",
    "category_id": 1,
    "rating": 4.0,
    "price_level": 2,
    "address": "Đường phố, Bình Thuận",
    "lat": 10.942517,
    "lon": 108.192323,
    "phone_number": "",
    "open_hours": "08:00 - 22:00",
    "main_image_url": "",
    "tags": [
      "restaurant",
      "Bình Thuận"
    ]
  },
  {
    "id": "3851814155",
    "name": "Love Sushi Phan Thiet",
    "category_id": 2,
    "rating": 4.6,
    "price_level": 1,
    "address": "01 Tôn Đức Thắng, Bình Thuận",
    "lat": 10.9296538,
    "lon": 108.1109296,
    "phone_number": "0773004437",
    "open_hours": "11:00-23:00",
    "main_image_url": "",
    "tags": [
      "restaurant",
      "japanese",
      "Bình Thuận"
    ]
  },
  {
    "id": "4092023194",
    "name": "Pizza Hut",
    "category_id": 3,
    "rating": 4.7,
    "price_level": 2,
    "address": "Hùng Vương, Bình Thuận",
    "lat": 10.938832,
    "lon": 108.1106159,
    "phone_number": "",
    "open_hours": "10:00-22:00",
    "main_image_url": "",
    "tags": [
      "restaurant",
      "pizza",
      "Bình Thuận"
    ]
  },
  {
    "id": "4122134890",
    "name": "Nem nướng Minh Hiếu",
    "category_id": 2,
    "rating": 4.9,
    "price_level": 3,
    "address": "425 Trần Hưng Đạo, Bình Thuận",
    "lat": 10.9267308,
    "lon": 108.1024821,
    "phone_number": "",
    "open_hours": "08:00 - 22:00",
    "main_image_url": "",
    "tags": [
      "restaurant",
      "Bình Thuận"
    ]
  },
  {
    "id": "4245717092",
    "name": "Vien Chau",
    "category_id": 2,
    "rating": 4.4,
    "price_level": 2,
    "address": "Đường phố, Bình Thuận",
    "lat": 10.9195553,
    "lon": 108.0781224,
    "phone_number": "",
    "open_hours": "08:00 - 22:00",
    "main_image_url": "",
    "tags": [
      "restaurant",
      "Bình Thuận"
    ]
  },
  {
    "id": "4339674496",
    "name": "Дежавю",
    "category_id": 2,
    "rating": 3.8,
    "price_level": 1,
    "address": "Đường phố, Bình Thuận",
    "lat": 10.9417981,
    "lon": 108.1911944,
    "phone_number": "",
    "open_hours": "08:00 - 22:00",
    "main_image_url": "",
    "tags": [
      "restaurant",
      "Bình Thuận"
    ]
  },
  {
    "id": "4163316690",
    "name": "Bánh Tầm Cari Cay",
    "category_id": 2,
    "rating": 4.0,
    "price_level": 3,
    "address": "Lý Bôn, Cà Mau",
    "lat": 9.1805078,
    "lon": 105.147991,
    "phone_number": "",
    "open_hours": "08:00 - 22:00",
    "main_image_url": "",
    "tags": [
      "restaurant",
      "Cà Mau"
    ]
  },
  {
    "id": "4184997390",
    "name": "Triều Phát",
    "category_id": 1,
    "rating": 4.4,
    "price_level": 2,
    "address": "14 Phan Đình Phùng, Cà Mau",
    "lat": 9.1825996,
    "lon": 105.1478117,
    "phone_number": "",
    "open_hours": "08:00 - 22:00",
    "main_image_url": "",
    "tags": [
      "restaurant",
      "Cà Mau"
    ]
  },
  {
    "id": "4516891589",
    "name": "Gà Rán 28",
    "category_id": 2,
    "rating": 4.5,
    "price_level": 1,
    "address": "28 Lý Thường Kiệt, Cà Mau",
    "lat": 9.1771315,
    "lon": 105.1492743,
    "phone_number": "01999840840",
    "open_hours": "24/7",
    "main_image_url": "",
    "tags": [
      "restaurant",
      "chicken",
      "sausage",
      "coffee_shop",
      "Cà Mau"
    ]
  },
  {
    "id": "8783903154",
    "name": "Tiệm bánh An's Cake",
    "category_id": 2,
    "rating": 4.9,
    "price_level": 3,
    "address": "265 Nguyễn Trãi, Cà Mau",
    "lat": 9.1851669,
    "lon": 105.1477245,
    "phone_number": "0902472618",
    "open_hours": "Mo-Su 08:00-20:00",
    "main_image_url": "",
    "tags": [
      "restaurant",
      "cake",
      "cheesecake",
      "bread",
      "Cà Mau"
    ]
  },
  {
    "id": "12604003837",
    "name": "Phở Hùng",
    "category_id": 4,
    "rating": 4.3,
    "price_level": 1,
    "address": "Đường phố, Cà Mau",
    "lat": 9.1790142,
    "lon": 105.1558703,
    "phone_number": "+84 918 516 974",
    "open_hours": "05:00-14:00,16:00-22:30",
    "main_image_url": "",
    "tags": [
      "restaurant",
      "vietnamese",
      "Cà Mau"
    ]
  },
  {
    "id": "4525708689",
    "name": "Pizza Chi",
    "category_id": 2,
    "rating": 4.0,
    "price_level": 2,
    "address": "Đường phố, Cao Bằng",
    "lat": 22.6682301,
    "lon": 106.2598088,
    "phone_number": "",
    "open_hours": "08:00 - 22:00",
    "main_image_url": "",
    "tags": [
      "restaurant",
      "italian_pizza",
      "Cao Bằng"
    ]
  },
  {
    "id": "4528239352",
    "name": "Hùng Trinh BBQ",
    "category_id": 1,
    "rating": 4.7,
    "price_level": 3,
    "address": "Đường phố, Cao Bằng",
    "lat": 22.6612045,
    "lon": 106.2596454,
    "phone_number": "",
    "open_hours": "08:00 - 22:00",
    "main_image_url": "",
    "tags": [
      "restaurant",
      "barbecue",
      "Cao Bằng"
    ]
  },
  {
    "id": "4529967714",
    "name": "Nam Hoa Quán",
    "category_id": 4,
    "rating": 4.5,
    "price_level": 3,
    "address": "Đường phố, Cao Bằng",
    "lat": 22.6630718,
    "lon": 106.258396,
    "phone_number": "0263953198",
    "open_hours": "08:00 - 22:00",
    "main_image_url": "",
    "tags": [
      "restaurant",
      "vietnamese",
      "Cao Bằng"
    ]
  },
  {
    "id": "4688860289",
    "name": "Huong Thinh",
    "category_id": 3,
    "rating": 4.3,
    "price_level": 2,
    "address": "51 Xuan Truong 51, Cao Bằng",
    "lat": 22.6671373,
    "lon": 106.2570266,
    "phone_number": "+84918828286",
    "open_hours": "Mo-Su 08:00-24:00",
    "main_image_url": "",
    "tags": [
      "restaurant",
      "barbecue",
      "Cao Bằng"
    ]
  },
  {
    "id": "4757625521",
    "name": "M-box",
    "category_id": 1,
    "rating": 4.2,
    "price_level": 1,
    "address": "Đường phố, Cao Bằng",
    "lat": 22.6610636,
    "lon": 106.2596012,
    "phone_number": "01687902166",
    "open_hours": "08:00 - 22:00",
    "main_image_url": "",
    "tags": [
      "restaurant",
      "Cao Bằng"
    ]
  },
  {
    "id": "4985015421",
    "name": "Com Binh Dan",
    "category_id": 1,
    "rating": 4.1,
    "price_level": 1,
    "address": "120 Be Van Dan, Cao Bằng",
    "lat": 22.6638917,
    "lon": 106.2573856,
    "phone_number": "0263852600",
    "open_hours": "08:00 - 22:00",
    "main_image_url": "",
    "tags": [
      "restaurant",
      "vietnamese",
      "Cao Bằng"
    ]
  },
  {
    "id": "5294733024",
    "name": "Com",
    "category_id": 4,
    "rating": 3.9,
    "price_level": 1,
    "address": "Đường phố, Cao Bằng",
    "lat": 22.6679349,
    "lon": 106.2599425,
    "phone_number": "",
    "open_hours": "08:00 - 22:00",
    "main_image_url": "",
    "tags": [
      "restaurant",
      "Cao Bằng"
    ]
  },
  {
    "id": "5409727821",
    "name": "Cao bang",
    "category_id": 2,
    "rating": 4.3,
    "price_level": 2,
    "address": "Đường phố, Cao Bằng",
    "lat": 22.6674889,
    "lon": 106.2613241,
    "phone_number": "",
    "open_hours": "08:00 - 22:00",
    "main_image_url": "",
    "tags": [
      "restaurant",
      "Cao Bằng"
    ]
  },
  {
    "id": "5656120922",
    "name": "Phó Vi Thiêm",
    "category_id": 2,
    "rating": 3.9,
    "price_level": 2,
    "address": "Đường phố, Cao Bằng",
    "lat": 22.6671825,
    "lon": 106.2567108,
    "phone_number": "",
    "open_hours": "08:00 - 22:00",
    "main_image_url": "",
    "tags": [
      "restaurant",
      "vietnamese",
      "Cao Bằng"
    ]
  },
  {
    "id": "6328672186",
    "name": "Đà Điểu",
    "category_id": 4,
    "rating": 4.1,
    "price_level": 2,
    "address": "Đường phố, Cao Bằng",
    "lat": 22.6773149,
    "lon": 106.2368754,
    "phone_number": "",
    "open_hours": "08:00 - 22:00",
    "main_image_url": "",
    "tags": [
      "restaurant",
      "Cao Bằng"
    ]
  },
  {
    "id": "5205733121",
    "name": "Mỳ Quảng Sáu Thọ",
    "category_id": 3,
    "rating": 4.2,
    "price_level": 1,
    "address": "quốc lộ 26, Đắk Lắk",
    "lat": 12.7149905,
    "lon": 108.2467679,
    "phone_number": "0933923238",
    "open_hours": "24/7",
    "main_image_url": "",
    "tags": [
      "restaurant",
      "Đắk Lắk"
    ]
  },
  {
    "id": "11143099353",
    "name": "Nhà hàng GIA PHÁT VD4",
    "category_id": 1,
    "rating": 4.8,
    "price_level": 3,
    "address": "Chợ Việt đức 4 Việt đức 4, Đắk Lắk",
    "lat": 12.6378421,
    "lon": 108.1967112,
    "phone_number": "+84961256356",
    "open_hours": "24/7",
    "main_image_url": "",
    "tags": [
      "restaurant",
      "coffee_shop",
      "vietnamese",
      "Đắk Lắk"
    ]
  },
  {
    "id": "3294335516",
    "name": "Vegetarian Restaurant",
    "category_id": 2,
    "rating": 4.3,
    "price_level": 1,
    "address": "Đường phố, Điện Biên",
    "lat": 21.3977311,
    "lon": 103.0211599,
    "phone_number": "",
    "open_hours": "08:00 - 22:00",
    "main_image_url": "",
    "tags": [
      "restaurant",
      "Điện Biên"
    ]
  },
  {
    "id": "4061334793",
    "name": "Sông Hồng Restaurant",
    "category_id": 1,
    "rating": 4.0,
    "price_level": 3,
    "address": "Đường phố, Điện Biên",
    "lat": 21.385886,
    "lon": 103.0197155,
    "phone_number": "",
    "open_hours": "08:00 - 22:00",
    "main_image_url": "",
    "tags": [
      "restaurant",
      "Điện Biên"
    ]
  },
  {
    "id": "4411033391",
    "name": "Nhà hàng Dân Tộc Quán",
    "category_id": 2,
    "rating": 4.5,
    "price_level": 2,
    "address": "Đường phố, Điện Biên",
    "lat": 21.3813687,
    "lon": 103.0124033,
    "phone_number": "",
    "open_hours": "08:00 - 22:00",
    "main_image_url": "",
    "tags": [
      "restaurant",
      "Điện Biên"
    ]
  },
  {
    "id": "4411036390",
    "name": "Nhà hàng Ngọc Mai",
    "category_id": 1,
    "rating": 4.8,
    "price_level": 2,
    "address": "Đường phố, Điện Biên",
    "lat": 21.388598,
    "lon": 103.01689,
    "phone_number": "",
    "open_hours": "08:00 - 22:00",
    "main_image_url": "",
    "tags": [
      "restaurant",
      "oriental",
      "Điện Biên"
    ]
  },
  {
    "id": "4411036391",
    "name": "Nhà hàng Tay Muong",
    "category_id": 1,
    "rating": 4.6,
    "price_level": 1,
    "address": "Đường phố, Điện Biên",
    "lat": 21.381409,
    "lon": 103.012046,
    "phone_number": "",
    "open_hours": "08:00 - 22:00",
    "main_image_url": "",
    "tags": [
      "restaurant",
      "Điện Biên"
    ]
  },
  {
    "id": "4416978389",
    "name": "vụ ân restaurant",
    "category_id": 2,
    "rating": 4.6,
    "price_level": 3,
    "address": "Đường phố, Điện Biên",
    "lat": 21.3824981,
    "lon": 103.0201467,
    "phone_number": "",
    "open_hours": "08:00 - 22:00",
    "main_image_url": "",
    "tags": [
      "restaurant",
      "Điện Biên"
    ]
  },
  {
    "id": "4693157590",
    "name": "Yen Ninh",
    "category_id": 1,
    "rating": 4.5,
    "price_level": 2,
    "address": "Đường phố, Điện Biên",
    "lat": 21.3960546,
    "lon": 103.0205131,
    "phone_number": "+84 98 988 75 13",
    "open_hours": "Mo-Su 08:00-22:00",
    "main_image_url": "",
    "tags": [
      "restaurant",
      "vietnamese",
      "Điện Biên"
    ]
  },
  {
    "id": "5626777821",
    "name": "Bun Cha Oc",
    "category_id": 2,
    "rating": 4.8,
    "price_level": 2,
    "address": "571 Võ Nguyên Giáp, Điện Biên",
    "lat": 21.3977803,
    "lon": 103.0215392,
    "phone_number": "",
    "open_hours": "08:00 - 22:00",
    "main_image_url": "",
    "tags": [
      "restaurant",
      "vietnamese",
      "Điện Biên"
    ]
  },
  {
    "id": "7156615985",
    "name": "Quán chay tú oanh",
    "category_id": 1,
    "rating": 4.9,
    "price_level": 3,
    "address": "653 Tô 9, Tân Thanh, Tp, Điện Biên",
    "lat": 21.396115,
    "lon": 103.0197115,
    "phone_number": "",
    "open_hours": "08:00 - 22:00",
    "main_image_url": "",
    "tags": [
      "restaurant",
      "Điện Biên"
    ]
  },
  {
    "id": "4765816206",
    "name": "Canteen H6",
    "category_id": 3,
    "rating": 3.9,
    "price_level": 3,
    "address": "Đường phố, Đồng Nai",
    "lat": 10.8798233,
    "lon": 106.8063266,
    "phone_number": "",
    "open_hours": "7:00",
    "main_image_url": "",
    "tags": [
      "restaurant",
      "cơm",
      "Đồng Nai"
    ]
  },
  {
    "id": "4765847121",
    "name": "Nhà Ăn A11",
    "category_id": 1,
    "rating": 3.9,
    "price_level": 3,
    "address": "Đường phố, Đồng Nai",
    "lat": 10.876471,
    "lon": 106.8066492,
    "phone_number": "",
    "open_hours": "08:00 - 22:00",
    "main_image_url": "",
    "tags": [
      "restaurant",
      "vietnamese",
      "Đồng Nai"
    ]
  },
  {
    "id": "4809030777",
    "name": "Nhà ăn AH1",
    "category_id": 2,
    "rating": 4.0,
    "price_level": 1,
    "address": "Đường phố, Đồng Nai",
    "lat": 10.8815531,
    "lon": 106.8086954,
    "phone_number": "",
    "open_hours": "08:00 - 22:00",
    "main_image_url": "",
    "tags": [
      "restaurant",
      "Đồng Nai"
    ]
  },
  {
    "id": "4809049513",
    "name": "Nhà Ăn A3",
    "category_id": 4,
    "rating": 4.0,
    "price_level": 2,
    "address": "Đường phố, Đồng Nai",
    "lat": 10.8778356,
    "lon": 106.8061546,
    "phone_number": "",
    "open_hours": "08:00 - 22:00",
    "main_image_url": "",
    "tags": [
      "restaurant",
      "Đồng Nai"
    ]
  },
  {
    "id": "4809060667",
    "name": "Nhà ăn AG4",
    "category_id": 4,
    "rating": 4.3,
    "price_level": 1,
    "address": "Đường phố, Đồng Nai",
    "lat": 10.8810396,
    "lon": 106.8099903,
    "phone_number": "",
    "open_hours": "08:00 - 22:00",
    "main_image_url": "",
    "tags": [
      "restaurant",
      "Đồng Nai"
    ]
  },
  {
    "id": "4809060668",
    "name": "Nhà ăn AG3",
    "category_id": 1,
    "rating": 4.7,
    "price_level": 2,
    "address": "Đường phố, Đồng Nai",
    "lat": 10.8808807,
    "lon": 106.8101132,
    "phone_number": "",
    "open_hours": "08:00 - 22:00",
    "main_image_url": "",
    "tags": [
      "restaurant",
      "Đồng Nai"
    ]
  },
  {
    "id": "4809060672",
    "name": "Bánh ướt A18",
    "category_id": 4,
    "rating": 3.9,
    "price_level": 2,
    "address": "Đường phố, Đồng Nai",
    "lat": 10.8798466,
    "lon": 106.8083531,
    "phone_number": "",
    "open_hours": "08:00 - 22:00",
    "main_image_url": "",
    "tags": [
      "restaurant",
      "Đồng Nai"
    ]
  },
  {
    "id": "4809086650",
    "name": "Nhà Ăn A10",
    "category_id": 4,
    "rating": 4.8,
    "price_level": 3,
    "address": "Đường phố, Đồng Nai",
    "lat": 10.8768499,
    "lon": 106.806051,
    "phone_number": "",
    "open_hours": "08:00 - 22:00",
    "main_image_url": "",
    "tags": [
      "restaurant",
      "Đồng Nai"
    ]
  },
  {
    "id": "4809094966",
    "name": "Phở A9",
    "category_id": 1,
    "rating": 3.9,
    "price_level": 2,
    "address": "Đường phố, Đồng Nai",
    "lat": 10.8789628,
    "lon": 106.8069176,
    "phone_number": "",
    "open_hours": "08:00 - 22:00",
    "main_image_url": "",
    "tags": [
      "restaurant",
      "Đồng Nai"
    ]
  },
  {
    "id": "4809094969",
    "name": "Nhà ăn A8",
    "category_id": 4,
    "rating": 4.0,
    "price_level": 3,
    "address": "Đường phố, Đồng Nai",
    "lat": 10.8786917,
    "lon": 106.807438,
    "phone_number": "",
    "open_hours": "08:00 - 22:00",
    "main_image_url": "",
    "tags": [
      "restaurant",
      "Đồng Nai"
    ]
  },
  {
    "id": "3763545365",
    "name": "Tứ Hòa",
    "category_id": 2,
    "rating": 4.6,
    "price_level": 3,
    "address": "Đường phố, Đồng Tháp",
    "lat": 10.4577436,
    "lon": 105.6306099,
    "phone_number": "",
    "open_hours": "08:00 - 22:00",
    "main_image_url": "",
    "tags": [
      "restaurant",
      "Đồng Tháp"
    ]
  },
  {
    "id": "3763545368",
    "name": "Suky",
    "category_id": 3,
    "rating": 4.9,
    "price_level": 2,
    "address": "Đường phố, Đồng Tháp",
    "lat": 10.463155,
    "lon": 105.6325318,
    "phone_number": "",
    "open_hours": "08:00 - 22:00",
    "main_image_url": "",
    "tags": [
      "restaurant",
      "Đồng Tháp"
    ]
  },
  {
    "id": "3766738153",
    "name": "Quán ăn Chú Béo",
    "category_id": 3,
    "rating": 4.0,
    "price_level": 1,
    "address": "Đường phố, Đồng Tháp",
    "lat": 10.4632039,
    "lon": 105.6316317,
    "phone_number": "",
    "open_hours": "08:00 - 22:00",
    "main_image_url": "",
    "tags": [
      "restaurant",
      "Đồng Tháp"
    ]
  },
  {
    "id": "3766820553",
    "name": "Á Châu",
    "category_id": 4,
    "rating": 4.0,
    "price_level": 1,
    "address": "Đường phố, Đồng Tháp",
    "lat": 10.4590022,
    "lon": 105.6352363,
    "phone_number": "",
    "open_hours": "08:00 - 22:00",
    "main_image_url": "",
    "tags": [
      "restaurant",
      "Đồng Tháp"
    ]
  },
  {
    "id": "3766821470",
    "name": "Như ý",
    "category_id": 3,
    "rating": 4.6,
    "price_level": 3,
    "address": "Đường phố, Đồng Tháp",
    "lat": 10.4649467,
    "lon": 105.641041,
    "phone_number": "",
    "open_hours": "08:00 - 22:00",
    "main_image_url": "",
    "tags": [
      "restaurant",
      "Đồng Tháp"
    ]
  },
  {
    "id": "3766821479",
    "name": "Thủy triều quán",
    "category_id": 4,
    "rating": 4.6,
    "price_level": 3,
    "address": "Đường phố, Đồng Tháp",
    "lat": 10.4631894,
    "lon": 105.644387,
    "phone_number": "",
    "open_hours": "08:00 - 22:00",
    "main_image_url": "",
    "tags": [
      "restaurant",
      "Đồng Tháp"
    ]
  },
  {
    "id": "3766821480",
    "name": "Công Thuận",
    "category_id": 1,
    "rating": 4.9,
    "price_level": 2,
    "address": "Đường phố, Đồng Tháp",
    "lat": 10.4639953,
    "lon": 105.6445041,
    "phone_number": "",
    "open_hours": "08:00 - 22:00",
    "main_image_url": "",
    "tags": [
      "restaurant",
      "Đồng Tháp"
    ]
  },
  {
    "id": "3775978182",
    "name": "Hải Vân",
    "category_id": 4,
    "rating": 3.9,
    "price_level": 2,
    "address": "Đường phố, Đồng Tháp",
    "lat": 10.4624644,
    "lon": 105.6294109,
    "phone_number": "",
    "open_hours": "08:00 - 22:00",
    "main_image_url": "",
    "tags": [
      "restaurant",
      "Đồng Tháp"
    ]
  },
  {
    "id": "3775997494",
    "name": "Việt Hà",
    "category_id": 1,
    "rating": 4.2,
    "price_level": 3,
    "address": "Đường phố, Đồng Tháp",
    "lat": 10.4451603,
    "lon": 105.6304469,
    "phone_number": "",
    "open_hours": "08:00 - 22:00",
    "main_image_url": "",
    "tags": [
      "restaurant",
      "Đồng Tháp"
    ]
  },
  {
    "id": "4569987591",
    "name": "Ngoc lan",
    "category_id": 1,
    "rating": 4.8,
    "price_level": 3,
    "address": "Đường phố, Đồng Tháp",
    "lat": 10.4582775,
    "lon": 105.6396791,
    "phone_number": "",
    "open_hours": "08:00 - 22:00",
    "main_image_url": "",
    "tags": [
      "restaurant",
      "vietnamese",
      "Đồng Tháp"
    ]
  },
  {
    "id": "456715433",
    "name": "Ngoc Lam",
    "category_id": 3,
    "rating": 4.0,
    "price_level": 3,
    "address": "Đường phố, Gia Lai",
    "lat": 13.9809129,
    "lon": 107.9950274,
    "phone_number": "",
    "open_hours": "08:00 - 22:00",
    "main_image_url": "",
    "tags": [
      "restaurant",
      "regional",
      "Gia Lai"
    ]
  },
  {
    "id": "1793136404",
    "name": "Thành Tâm",
    "category_id": 2,
    "rating": 4.9,
    "price_level": 3,
    "address": "Đường phố, Gia Lai",
    "lat": 13.9781418,
    "lon": 108.0049932,
    "phone_number": "",
    "open_hours": "08:00 - 22:00",
    "main_image_url": "",
    "tags": [
      "restaurant",
      "Gia Lai"
    ]
  },
  {
    "id": "4704659190",
    "name": "BBQ Vien Dong",
    "category_id": 4,
    "rating": 4.0,
    "price_level": 3,
    "address": "Đường phố, Gia Lai",
    "lat": 13.9796249,
    "lon": 107.9950846,
    "phone_number": "",
    "open_hours": "08:00 - 22:00",
    "main_image_url": "",
    "tags": [
      "restaurant",
      "steak_house",
      "vietnamese",
      "local",
      "Gia Lai"
    ]
  },
  {
    "id": "4784335122",
    "name": "cơm Gà Ngọc Ký",
    "category_id": 4,
    "rating": 4.0,
    "price_level": 2,
    "address": "Đường phố, Gia Lai",
    "lat": 13.9796747,
    "lon": 107.9942277,
    "phone_number": "",
    "open_hours": "08:00 - 22:00",
    "main_image_url": "",
    "tags": [
      "restaurant",
      "Gia Lai"
    ]
  },
  {
    "id": "4987490224",
    "name": "Quán Vạn xuân",
    "category_id": 4,
    "rating": 4.2,
    "price_level": 2,
    "address": "03 Trần Quốc Toản, Gia Lai",
    "lat": 13.9783345,
    "lon": 107.9910244,
    "phone_number": "",
    "open_hours": "24/7",
    "main_image_url": "",
    "tags": [
      "restaurant",
      "Gia Lai"
    ]
  },
  {
    "id": "5081735522",
    "name": "Phở Ngọc Sơn",
    "category_id": 1,
    "rating": 4.0,
    "price_level": 3,
    "address": "15 Nguyễn Thái Học, Gia Lai",
    "lat": 13.9769361,
    "lon": 108.0037679,
    "phone_number": "",
    "open_hours": "08:00 - 22:00",
    "main_image_url": "",
    "tags": [
      "restaurant",
      "vietnamese",
      "Gia Lai"
    ]
  },
  {
    "id": "5364862821",
    "name": "C.INE Restaurant",
    "category_id": 4,
    "rating": 4.4,
    "price_level": 1,
    "address": "Đường phố, Gia Lai",
    "lat": 13.9744886,
    "lon": 108.0009408,
    "phone_number": "",
    "open_hours": "08:00 - 22:00",
    "main_image_url": "",
    "tags": [
      "restaurant",
      "Gia Lai"
    ]
  },
  {
    "id": "5714615221",
    "name": "Dê Krông Pa",
    "category_id": 3,
    "rating": 4.8,
    "price_level": 3,
    "address": "139 Wừu, Gia Lai",
    "lat": 13.9739276,
    "lon": 107.9998005,
    "phone_number": "",
    "open_hours": "08:00 - 22:00",
    "main_image_url": "",
    "tags": [
      "restaurant",
      "Gia Lai"
    ]
  },
  {
    "id": "5740175402",
    "name": "Nhà Hàng Biển Hồ Xanh",
    "category_id": 4,
    "rating": 4.9,
    "price_level": 1,
    "address": "662 Phạm Văn Đồng, Gia Lai",
    "lat": 14.0250215,
    "lon": 107.9906388,
    "phone_number": "",
    "open_hours": "08:00 - 22:00",
    "main_image_url": "",
    "tags": [
      "restaurant",
      "Gia Lai"
    ]
  },
  {
    "id": "5755816787",
    "name": "Nhà Hàng Đông Dương",
    "category_id": 1,
    "rating": 4.5,
    "price_level": 1,
    "address": "386 Phạm Văn Đồng, Gia Lai",
    "lat": 14.0114739,
    "lon": 107.9933968,
    "phone_number": "",
    "open_hours": "08:00 - 22:00",
    "main_image_url": "",
    "tags": [
      "restaurant",
      "Gia Lai"
    ]
  },
  {
    "id": "4304500994",
    "name": "Mon Ngon Hue",
    "category_id": 3,
    "rating": 3.9,
    "price_level": 3,
    "address": "Đường phố, Hà Giang",
    "lat": 22.8223786,
    "lon": 104.9827936,
    "phone_number": "",
    "open_hours": "08:00 - 22:00",
    "main_image_url": "",
    "tags": [
      "restaurant",
      "vietnamese",
      "Hà Giang"
    ]
  },
  {
    "id": "4305464989",
    "name": "Bang Gia",
    "category_id": 4,
    "rating": 4.9,
    "price_level": 1,
    "address": "Đường phố, Hà Giang",
    "lat": 22.8185025,
    "lon": 104.9810354,
    "phone_number": "",
    "open_hours": "08:00 - 22:00",
    "main_image_url": "",
    "tags": [
      "restaurant",
      "Hà Giang"
    ]
  },
  {
    "id": "4305464990",
    "name": "Kem NZ",
    "category_id": 2,
    "rating": 4.9,
    "price_level": 1,
    "address": "Đường phố, Hà Giang",
    "lat": 22.8223162,
    "lon": 104.9825887,
    "phone_number": "",
    "open_hours": "08:00 - 22:00",
    "main_image_url": "",
    "tags": [
      "restaurant",
      "vietnamese",
      "ice_cream",
      "Hà Giang"
    ]
  },
  {
    "id": "4513761194",
    "name": "Lẩu Chim câu",
    "category_id": 1,
    "rating": 4.5,
    "price_level": 2,
    "address": "Đường phố, Hà Giang",
    "lat": 22.8171853,
    "lon": 104.989662,
    "phone_number": "",
    "open_hours": "08:00 - 22:00",
    "main_image_url": "",
    "tags": [
      "restaurant",
      "Hà Giang"
    ]
  },
  {
    "id": "4515045291",
    "name": "Nhà Hàng Sơn Thuỷ",
    "category_id": 4,
    "rating": 4.6,
    "price_level": 2,
    "address": "8d Đường phố, Hà Giang",
    "lat": 22.832804,
    "lon": 104.9834972,
    "phone_number": "",
    "open_hours": "08:00 - 22:00",
    "main_image_url": "",
    "tags": [
      "restaurant",
      "Hà Giang"
    ]
  },
  {
    "id": "4515107289",
    "name": "Golden BBQ Buffet",
    "category_id": 4,
    "rating": 4.2,
    "price_level": 3,
    "address": "42a Đường phố, Hà Giang",
    "lat": 22.8354264,
    "lon": 104.9820145,
    "phone_number": "",
    "open_hours": "08:00 - 22:00",
    "main_image_url": "",
    "tags": [
      "restaurant",
      "Hà Giang"
    ]
  },
  {
    "id": "4652423500",
    "name": "bún cua ốc cá",
    "category_id": 4,
    "rating": 4.3,
    "price_level": 1,
    "address": "154 Trần Hưng Đạo, Hà Giang",
    "lat": 22.8302645,
    "lon": 104.9831568,
    "phone_number": "0943961755",
    "open_hours": "08:00 - 22:00",
    "main_image_url": "",
    "tags": [
      "restaurant",
      "breakfast",
      "Hà Giang"
    ]
  },
  {
    "id": "4753905221",
    "name": "Cóm",
    "category_id": 2,
    "rating": 4.3,
    "price_level": 1,
    "address": "Đường phố, Hà Giang",
    "lat": 22.8338353,
    "lon": 104.9876967,
    "phone_number": "0912 452641",
    "open_hours": "08:00 - 22:00",
    "main_image_url": "",
    "tags": [
      "restaurant",
      "Hà Giang"
    ]
  },
  {
    "id": "4753905521",
    "name": "Bia Hoi",
    "category_id": 3,
    "rating": 4.3,
    "price_level": 2,
    "address": "Đường phố, Hà Giang",
    "lat": 22.8218581,
    "lon": 104.984843,
    "phone_number": "",
    "open_hours": "08:00 - 22:00",
    "main_image_url": "",
    "tags": [
      "restaurant",
      "Hà Giang"
    ]
  },
  {
    "id": "4830747621",
    "name": "Nhà hàng Phở Chờ Lâm My",
    "category_id": 2,
    "rating": 3.9,
    "price_level": 1,
    "address": "358 Lý Tự Trọng, Hà Giang",
    "lat": 22.8335648,
    "lon": 104.9914101,
    "phone_number": "",
    "open_hours": "08:00 - 22:00",
    "main_image_url": "",
    "tags": [
      "restaurant",
      "Hà Giang"
    ]
  },
  {
    "id": "3787800312",
    "name": "Nhà hàng Cánh Buồm",
    "category_id": 2,
    "rating": 4.1,
    "price_level": 3,
    "address": "Đường phố, Hà Nam",
    "lat": 20.6442433,
    "lon": 105.9236269,
    "phone_number": "",
    "open_hours": "08:00 - 22:00",
    "main_image_url": "",
    "tags": [
      "restaurant",
      "vietnamese",
      "Hà Nam"
    ]
  },
  {
    "id": "6707415685",
    "name": "Chay Tuệ Giác Hà Nam",
    "category_id": 1,
    "rating": 4.6,
    "price_level": 3,
    "address": "54F Trần Phú, Hà Nam",
    "lat": 20.5488925,
    "lon": 105.9133381,
    "phone_number": "+84 90 321 23 55",
    "open_hours": "Mo-Su 07:00-21:00",
    "main_image_url": "",
    "tags": [
      "restaurant",
      "ice_cream",
      "coffee_shop",
      "fine_dining",
      "breakfast",
      "diner",
      "Hà Nam"
    ]
  },
  {
    "id": "7004029785",
    "name": "Cham Cham",
    "category_id": 4,
    "rating": 4.8,
    "price_level": 1,
    "address": "Đường phố, Hà Nam",
    "lat": 20.5428143,
    "lon": 105.920094,
    "phone_number": "",
    "open_hours": "08:00 - 22:00",
    "main_image_url": "",
    "tags": [
      "restaurant",
      "Hà Nam"
    ]
  },
  {
    "id": "4251331790",
    "name": "Nha hang Huyen duc Am thuc Paradise",
    "category_id": 3,
    "rating": 4.7,
    "price_level": 1,
    "address": "155a Vũ Quang, Hà Tĩnh",
    "lat": 18.3402307,
    "lon": 105.8832388,
    "phone_number": "+84393699999",
    "open_hours": "08:00 - 22:00",
    "main_image_url": "",
    "tags": [
      "restaurant",
      "Hà Tĩnh"
    ]
  },
  {
    "id": "4421782908",
    "name": "Nhà Hàng Lý Dung",
    "category_id": 4,
    "rating": 4.7,
    "price_level": 1,
    "address": "28 Hai Mươi Sáu Tháng Ba, Hà Tĩnh",
    "lat": 18.3251424,
    "lon": 105.9139851,
    "phone_number": "",
    "open_hours": "08:00 - 22:00",
    "main_image_url": "",
    "tags": [
      "restaurant",
      "Mung_Bean_Pancake",
      "Hà Tĩnh"
    ]
  },
  {
    "id": "4625391989",
    "name": "Quán cơm xe tải Phong Nga",
    "category_id": 4,
    "rating": 4.3,
    "price_level": 2,
    "address": "ĐƯỜNG TRÁNH Hà Tĩnh, Hà Tĩnh",
    "lat": 18.3312142,
    "lon": 105.8696273,
    "phone_number": "0904715330",
    "open_hours": "24/7",
    "main_image_url": "",
    "tags": [
      "restaurant",
      "breakfast",
      "diner",
      "fish",
      "beef_bowl",
      "pasta",
      "chicken",
      "coffee_shop",
      "Hà Tĩnh"
    ]
  },
  {
    "id": "4795328823",
    "name": "Quán 37",
    "category_id": 2,
    "rating": 4.4,
    "price_level": 3,
    "address": "37 Phan Đình Phùng, Hà Tĩnh",
    "lat": 18.3381132,
    "lon": 105.9005077,
    "phone_number": "",
    "open_hours": "08:00 - 22:00",
    "main_image_url": "",
    "tags": [
      "restaurant",
      "Hà Tĩnh"
    ]
  },
  {
    "id": "5197759629",
    "name": "Ăn Vặt Trang Keo Ngon Nhất Thành Phố",
    "category_id": 2,
    "rating": 4.0,
    "price_level": 2,
    "address": "13 Ngõ 5 Võ Liên Sơn, Hà Tĩnh",
    "lat": 18.337501,
    "lon": 105.9003174,
    "phone_number": "0943751989",
    "open_hours": "08:00 - 22:00",
    "main_image_url": "",
    "tags": [
      "restaurant",
      "vietnamese",
      "Hà Tĩnh"
    ]
  },
  {
    "id": "5371661324",
    "name": "Cửa Hàng Thực Phẩm MitracoFood",
    "category_id": 3,
    "rating": 3.9,
    "price_level": 2,
    "address": "Xuân Diệu, Hà Tĩnh",
    "lat": 18.3473734,
    "lon": 105.89618,
    "phone_number": "",
    "open_hours": "08:00 - 22:00",
    "main_image_url": "",
    "tags": [
      "restaurant",
      "Hà Tĩnh"
    ]
  },
  {
    "id": "5372029209",
    "name": "Nhà Hàng Bồng Lam Hải",
    "category_id": 4,
    "rating": 4.3,
    "price_level": 2,
    "address": "Đường phố, Hà Tĩnh",
    "lat": 18.3452473,
    "lon": 105.8930847,
    "phone_number": "",
    "open_hours": "08:00 - 22:00",
    "main_image_url": "",
    "tags": [
      "restaurant",
      "Hà Tĩnh"
    ]
  },
  {
    "id": "5372029210",
    "name": "Mỳ Cay Sasin - 7 Cấp độ Hàn Quốc",
    "category_id": 1,
    "rating": 4.6,
    "price_level": 1,
    "address": "Đường phố, Hà Tĩnh",
    "lat": 18.345778,
    "lon": 105.8936439,
    "phone_number": "",
    "open_hours": "08:00 - 22:00",
    "main_image_url": "",
    "tags": [
      "restaurant",
      "Hà Tĩnh"
    ]
  },
  {
    "id": "5372029211",
    "name": "Thiên Ân Quán",
    "category_id": 1,
    "rating": 3.9,
    "price_level": 2,
    "address": "Đường phố, Hà Tĩnh",
    "lat": 18.3461711,
    "lon": 105.8933997,
    "phone_number": "",
    "open_hours": "08:00 - 22:00",
    "main_image_url": "",
    "tags": [
      "restaurant",
      "Hà Tĩnh"
    ]
  },
  {
    "id": "5372029224",
    "name": "Lâu Hiểu 39",
    "category_id": 3,
    "rating": 4.6,
    "price_level": 1,
    "address": "Đường phố, Hà Tĩnh",
    "lat": 18.3462765,
    "lon": 105.8916723,
    "phone_number": "",
    "open_hours": "08:00 - 22:00",
    "main_image_url": "",
    "tags": [
      "restaurant",
      "Hà Tĩnh"
    ]
  },
  {
    "id": "481836316",
    "name": "Ẩm thực sinh thái Sơn Hải",
    "category_id": 1,
    "rating": 4.8,
    "price_level": 3,
    "address": "Đường phố, Hải Dương",
    "lat": 20.949949,
    "lon": 106.36166,
    "phone_number": "",
    "open_hours": "08:00 - 22:00",
    "main_image_url": "",
    "tags": [
      "restaurant",
      "Hải Dương"
    ]
  },
  {
    "id": "481837574",
    "name": "Khu sinh thái Thuỷ Tiên",
    "category_id": 1,
    "rating": 4.1,
    "price_level": 1,
    "address": "Đường phố, Hải Dương",
    "lat": 20.9915285,
    "lon": 106.3465813,
    "phone_number": "",
    "open_hours": "08:00 - 22:00",
    "main_image_url": "",
    "tags": [
      "restaurant",
      "Hải Dương"
    ]
  },
  {
    "id": "9669814465",
    "name": "Huong Bien",
    "category_id": 3,
    "rating": 4.7,
    "price_level": 2,
    "address": "Đường phố, Hải Dương",
    "lat": 20.9495285,
    "lon": 106.3343868,
    "phone_number": "",
    "open_hours": "08:00 - 22:00",
    "main_image_url": "",
    "tags": [
      "restaurant",
      "Hải Dương"
    ]
  },
  {
    "id": "3294706351",
    "name": "Restaurant",
    "category_id": 2,
    "rating": 3.9,
    "price_level": 2,
    "address": "Đường phố, Hòa Bình",
    "lat": 20.6241372,
    "lon": 105.2772471,
    "phone_number": "",
    "open_hours": "08:00 - 22:00",
    "main_image_url": "",
    "tags": [
      "restaurant",
      "vietnamese",
      "Hòa Bình"
    ]
  },
  {
    "id": "4800342421",
    "name": "Cơm",
    "category_id": 3,
    "rating": 3.8,
    "price_level": 3,
    "address": "Đường phố, Hưng Yên",
    "lat": 20.6540502,
    "lon": 106.0615928,
    "phone_number": "",
    "open_hours": "08:00 - 22:00",
    "main_image_url": "",
    "tags": [
      "restaurant",
      "Hưng Yên"
    ]
  },
  {
    "id": "5174082221",
    "name": "Cơm",
    "category_id": 4,
    "rating": 4.6,
    "price_level": 3,
    "address": "Đường phố, Hưng Yên",
    "lat": 20.6829406,
    "lon": 106.0605429,
    "phone_number": "",
    "open_hours": "08:00 - 22:00",
    "main_image_url": "",
    "tags": [
      "restaurant",
      "Hưng Yên"
    ]
  },
  {
    "id": "1196767713",
    "name": "Truc Linh 2",
    "category_id": 4,
    "rating": 4.8,
    "price_level": 1,
    "address": "18 Biet thu, Khánh Hòa",
    "lat": 12.2356489,
    "lon": 109.1945677,
    "phone_number": "+84583521089",
    "open_hours": "08:00 - 22:00",
    "main_image_url": "",
    "tags": [
      "restaurant",
      "Khánh Hòa"
    ]
  },
  {
    "id": "1196847388",
    "name": "Good Morning Vietnam",
    "category_id": 2,
    "rating": 4.7,
    "price_level": 3,
    "address": "Đường phố, Khánh Hòa",
    "lat": 12.2355251,
    "lon": 109.1949937,
    "phone_number": "",
    "open_hours": "08:00 - 22:00",
    "main_image_url": "",
    "tags": [
      "restaurant",
      "Khánh Hòa"
    ]
  },
  {
    "id": "1629551646",
    "name": "Ganesh",
    "category_id": 3,
    "rating": 4.1,
    "price_level": 3,
    "address": "Đường phố, Khánh Hòa",
    "lat": 12.2338278,
    "lon": 109.1946518,
    "phone_number": "",
    "open_hours": "08:00 - 22:00",
    "main_image_url": "",
    "tags": [
      "restaurant",
      "indian",
      "Khánh Hòa"
    ]
  },
  {
    "id": "1629551668",
    "name": "La Mancha",
    "category_id": 3,
    "rating": 4.3,
    "price_level": 2,
    "address": "Đường phố, Khánh Hòa",
    "lat": 12.2357683,
    "lon": 109.1962187,
    "phone_number": "",
    "open_hours": "08:00 - 22:00",
    "main_image_url": "",
    "tags": [
      "restaurant",
      "spanish",
      "Khánh Hòa"
    ]
  },
  {
    "id": "1629551676",
    "name": "Da Fernando",
    "category_id": 1,
    "rating": 4.3,
    "price_level": 3,
    "address": "Đường phố, Khánh Hòa",
    "lat": 12.233567,
    "lon": 109.1947165,
    "phone_number": "",
    "open_hours": "08:00 - 22:00",
    "main_image_url": "",
    "tags": [
      "restaurant",
      "italian",
      "Khánh Hòa"
    ]
  },
  {
    "id": "1629551684",
    "name": "Ciao Vietnam",
    "category_id": 4,
    "rating": 4.1,
    "price_level": 3,
    "address": "Đường phố, Khánh Hòa",
    "lat": 12.2340268,
    "lon": 109.1945904,
    "phone_number": "",
    "open_hours": "08:00 - 22:00",
    "main_image_url": "",
    "tags": [
      "restaurant",
      "vietnamese",
      "Khánh Hòa"
    ]
  },
  {
    "id": "1629551694",
    "name": "Echo and Luca",
    "category_id": 1,
    "rating": 4.0,
    "price_level": 1,
    "address": "Đường phố, Khánh Hòa",
    "lat": 12.2336589,
    "lon": 109.1946922,
    "phone_number": "",
    "open_hours": "08:00 - 22:00",
    "main_image_url": "",
    "tags": [
      "restaurant",
      "italian",
      "Khánh Hòa"
    ]
  },
  {
    "id": "1629551698",
    "name": "Lanterns",
    "category_id": 4,
    "rating": 4.9,
    "price_level": 2,
    "address": "34/6 Nguyễn Thiện Thuật, Khánh Hòa",
    "lat": 12.2359834,
    "lon": 109.1939793,
    "phone_number": "084582471674",
    "open_hours": "08:00 - 22:00",
    "main_image_url": "",
    "tags": [
      "restaurant",
      "vietnamese",
      "Khánh Hòa"
    ]
  },
  {
    "id": "1629558985",
    "name": "The Sanest Restaurant",
    "category_id": 4,
    "rating": 4.7,
    "price_level": 2,
    "address": "Đường phố, Khánh Hòa",
    "lat": 12.2377319,
    "lon": 109.1935725,
    "phone_number": "",
    "open_hours": "08:00 - 22:00",
    "main_image_url": "",
    "tags": [
      "restaurant",
      "Khánh Hòa"
    ]
  },
  {
    "id": "1631209329",
    "name": "The Local 3",
    "category_id": 2,
    "rating": 4.2,
    "price_level": 3,
    "address": "Đường phố, Khánh Hòa",
    "lat": 12.2330004,
    "lon": 109.1950143,
    "phone_number": "",
    "open_hours": "08:00 - 22:00",
    "main_image_url": "",
    "tags": [
      "restaurant",
      "vietnamese",
      "Khánh Hòa"
    ]
  },
  {
    "id": "4919079721",
    "name": "Thực dơn chay",
    "category_id": 4,
    "rating": 3.8,
    "price_level": 1,
    "address": "Đường phố, Kiên Giang",
    "lat": 10.0093294,
    "lon": 105.0826762,
    "phone_number": "",
    "open_hours": "08:00 - 22:00",
    "main_image_url": "",
    "tags": [
      "restaurant",
      "Kiên Giang"
    ]
  },
  {
    "id": "6111688838",
    "name": "Bánh xèo",
    "category_id": 4,
    "rating": 4.4,
    "price_level": 1,
    "address": "Đường phố, Kiên Giang",
    "lat": 10.0094014,
    "lon": 105.0845744,
    "phone_number": "",
    "open_hours": "08:00 - 22:00",
    "main_image_url": "",
    "tags": [
      "restaurant",
      "regional",
      "Kiên Giang"
    ]
  },
  {
    "id": "6419253284",
    "name": "Hòa Giang",
    "category_id": 4,
    "rating": 4.8,
    "price_level": 3,
    "address": "Đường phố, Kiên Giang",
    "lat": 10.0039888,
    "lon": 105.0824824,
    "phone_number": "",
    "open_hours": "08:00 - 22:00",
    "main_image_url": "",
    "tags": [
      "restaurant",
      "Kiên Giang"
    ]
  },
  {
    "id": "6421078462",
    "name": "Gió Biển",
    "category_id": 4,
    "rating": 4.8,
    "price_level": 1,
    "address": "Đường phố, Kiên Giang",
    "lat": 9.9961866,
    "lon": 105.0819366,
    "phone_number": "",
    "open_hours": "08:00 - 22:00",
    "main_image_url": "",
    "tags": [
      "restaurant",
      "vietnamese",
      "Kiên Giang"
    ]
  },
  {
    "id": "6474136686",
    "name": "Pizzeria",
    "category_id": 3,
    "rating": 4.1,
    "price_level": 3,
    "address": "Đường phố, Kiên Giang",
    "lat": 10.0089884,
    "lon": 105.0819708,
    "phone_number": "",
    "open_hours": "08:00 - 22:00",
    "main_image_url": "",
    "tags": [
      "restaurant",
      "Kiên Giang"
    ]
  },
  {
    "id": "6697439886",
    "name": "ốc Gia Hoàng",
    "category_id": 4,
    "rating": 3.9,
    "price_level": 2,
    "address": "Đường phố, Kiên Giang",
    "lat": 10.0076171,
    "lon": 105.0795126,
    "phone_number": "",
    "open_hours": "08:00 - 22:00",
    "main_image_url": "",
    "tags": [
      "restaurant",
      "Kiên Giang"
    ]
  },
  {
    "id": "6698282485",
    "name": "Bún cá",
    "category_id": 4,
    "rating": 4.6,
    "price_level": 1,
    "address": "Đường phố, Kiên Giang",
    "lat": 10.0115955,
    "lon": 105.0829737,
    "phone_number": "",
    "open_hours": "08:00 - 22:00",
    "main_image_url": "",
    "tags": [
      "restaurant",
      "Kiên Giang"
    ]
  },
  {
    "id": "7133250989",
    "name": "Oc Mon",
    "category_id": 2,
    "rating": 4.6,
    "price_level": 2,
    "address": "Đường phố, Kiên Giang",
    "lat": 10.0083805,
    "lon": 105.0787143,
    "phone_number": "",
    "open_hours": "08:00 - 22:00",
    "main_image_url": "",
    "tags": [
      "restaurant",
      "seafood",
      "Kiên Giang"
    ]
  },
  {
    "id": "12615407413",
    "name": "Quán nhậu Đông Nam",
    "category_id": 4,
    "rating": 4.3,
    "price_level": 2,
    "address": "Đường phố, Kiên Giang",
    "lat": 10.0128485,
    "lon": 105.0722372,
    "phone_number": "",
    "open_hours": "08:00 - 22:00",
    "main_image_url": "",
    "tags": [
      "restaurant",
      "seafood",
      "Kiên Giang"
    ]
  },
  {
    "id": "12619912190",
    "name": "Cơm tấm trường",
    "category_id": 1,
    "rating": 4.8,
    "price_level": 1,
    "address": "Đường phố, Kiên Giang",
    "lat": 10.0117545,
    "lon": 105.0848669,
    "phone_number": "",
    "open_hours": "08:00 - 22:00",
    "main_image_url": "",
    "tags": [
      "restaurant",
      "Kiên Giang"
    ]
  },
  {
    "id": "4259785191",
    "name": "Home sweet home",
    "category_id": 3,
    "rating": 4.1,
    "price_level": 2,
    "address": "Ngô Quyền, Kon Tum",
    "lat": 14.347879,
    "lon": 108.00712,
    "phone_number": "",
    "open_hours": "08:00 - 22:00",
    "main_image_url": "",
    "tags": [
      "restaurant",
      "asian",
      "Kon Tum"
    ]
  },
  {
    "id": "4510434089",
    "name": "Benz's house",
    "category_id": 2,
    "rating": 4.7,
    "price_level": 2,
    "address": "53 Nguyen Trai, Kon Tum",
    "lat": 14.3475928,
    "lon": 108.0138467,
    "phone_number": "0966222244",
    "open_hours": "08:00 - 22:00",
    "main_image_url": "",
    "tags": [
      "restaurant",
      "coffee_shop",
      "korean",
      "Kon Tum"
    ]
  },
  {
    "id": "4585727658",
    "name": "Nghia Chay",
    "category_id": 3,
    "rating": 4.2,
    "price_level": 2,
    "address": "12 Le Loi, Kon Tum",
    "lat": 14.3513456,
    "lon": 108.0059544,
    "phone_number": "",
    "open_hours": "08:00 - 22:00",
    "main_image_url": "",
    "tags": [
      "restaurant",
      "Kon Tum"
    ]
  },
  {
    "id": "4596409099",
    "name": "3 Ngon",
    "category_id": 3,
    "rating": 4.7,
    "price_level": 3,
    "address": "Đường phố, Kon Tum",
    "lat": 14.3484056,
    "lon": 108.0057251,
    "phone_number": "",
    "open_hours": "08:00 - 22:00",
    "main_image_url": "",
    "tags": [
      "restaurant",
      "regional",
      "Kon Tum"
    ]
  },
  {
    "id": "4596569719",
    "name": "Quan Au Chai",
    "category_id": 4,
    "rating": 4.5,
    "price_level": 1,
    "address": "Đường phố, Kon Tum",
    "lat": 14.3512041,
    "lon": 108.0043308,
    "phone_number": "",
    "open_hours": "08:00 - 22:00",
    "main_image_url": "",
    "tags": [
      "restaurant",
      "vietnamese",
      "Kon Tum"
    ]
  },
  {
    "id": "4736424131",
    "name": "com chay 84",
    "category_id": 2,
    "rating": 4.0,
    "price_level": 2,
    "address": "Đường phố, Kon Tum",
    "lat": 14.35134,
    "lon": 108.0040947,
    "phone_number": "",
    "open_hours": "08:00 - 22:00",
    "main_image_url": "",
    "tags": [
      "restaurant",
      "vietnamese",
      "Kon Tum"
    ]
  },
  {
    "id": "4930954821",
    "name": "Bò Né",
    "category_id": 1,
    "rating": 3.9,
    "price_level": 1,
    "address": "Đường phố, Kon Tum",
    "lat": 14.3485057,
    "lon": 108.0055593,
    "phone_number": "",
    "open_hours": "08:00 - 22:00",
    "main_image_url": "",
    "tags": [
      "restaurant",
      "vietnamese",
      "Kon Tum"
    ]
  },
  {
    "id": "5301644321",
    "name": "tp Kon Tum Cơm Niêu có Bống",
    "category_id": 4,
    "rating": 4.1,
    "price_level": 3,
    "address": "130 Phan Đình Phùng (nối dài), Kon Tum",
    "lat": 14.35696,
    "lon": 108.0003482,
    "phone_number": "",
    "open_hours": "08:00 - 22:00",
    "main_image_url": "",
    "tags": [
      "restaurant",
      "Kon Tum"
    ]
  },
  {
    "id": "5510882821",
    "name": "Quán Đạt",
    "category_id": 1,
    "rating": 4.9,
    "price_level": 3,
    "address": "101 Phan Chu Trinh, Kon Tum",
    "lat": 14.3520485,
    "lon": 108.0146818,
    "phone_number": "",
    "open_hours": "08:00 - 22:00",
    "main_image_url": "",
    "tags": [
      "restaurant",
      "Kon Tum"
    ]
  },
  {
    "id": "5800123054",
    "name": "Quan Pho Kho My 2",
    "category_id": 3,
    "rating": 4.9,
    "price_level": 2,
    "address": "Nguyễn Huệ, Kon Tum",
    "lat": 14.3453537,
    "lon": 108.0081066,
    "phone_number": "",
    "open_hours": "08:00 - 22:00",
    "main_image_url": "",
    "tags": [
      "restaurant",
      "Kon Tum"
    ]
  },
  {
    "id": "5240245723",
    "name": "Bánh cuốn chả",
    "category_id": 4,
    "rating": 4.7,
    "price_level": 3,
    "address": "Đường phố, Lai Châu",
    "lat": 22.4010147,
    "lon": 103.4543899,
    "phone_number": "",
    "open_hours": "08:00 - 22:00",
    "main_image_url": "",
    "tags": [
      "restaurant",
      "Lai Châu"
    ]
  },
  {
    "id": "5552264125",
    "name": "Khánh Ly Quán",
    "category_id": 4,
    "rating": 4.8,
    "price_level": 3,
    "address": "Đường phố, Lai Châu",
    "lat": 22.3910435,
    "lon": 103.465249,
    "phone_number": "",
    "open_hours": "08:00 - 22:00",
    "main_image_url": "",
    "tags": [
      "restaurant",
      "Lai Châu"
    ]
  },
  {
    "id": "669359933",
    "name": "Mi Vinh Loi",
    "category_id": 1,
    "rating": 4.5,
    "price_level": 1,
    "address": "Đường phố, Lâm Đồng",
    "lat": 11.9412839,
    "lon": 108.4316096,
    "phone_number": "",
    "open_hours": "08:00 - 22:00",
    "main_image_url": "",
    "tags": [
      "restaurant",
      "Lâm Đồng"
    ]
  },
  {
    "id": "1150940211",
    "name": "Nhà hàng Thủy Tạ",
    "category_id": 4,
    "rating": 4.5,
    "price_level": 2,
    "address": "Đường phố, Lâm Đồng",
    "lat": 11.9400094,
    "lon": 108.442085,
    "phone_number": "",
    "open_hours": "08:00 - 22:00",
    "main_image_url": "",
    "tags": [
      "restaurant",
      "Lâm Đồng"
    ]
  },
  {
    "id": "1152312368",
    "name": "Phù Đổng",
    "category_id": 2,
    "rating": 3.8,
    "price_level": 1,
    "address": "Đường phố, Lâm Đồng",
    "lat": 11.9444037,
    "lon": 108.4563268,
    "phone_number": "",
    "open_hours": "08:00 - 22:00",
    "main_image_url": "",
    "tags": [
      "restaurant",
      "Lâm Đồng"
    ]
  },
  {
    "id": "1152312536",
    "name": "Hoa Sen",
    "category_id": 2,
    "rating": 4.5,
    "price_level": 2,
    "address": "Đường phố, Lâm Đồng",
    "lat": 11.945207,
    "lon": 108.4340991,
    "phone_number": "",
    "open_hours": "08:00 - 22:00",
    "main_image_url": "",
    "tags": [
      "restaurant",
      "Lâm Đồng"
    ]
  },
  {
    "id": "1152313717",
    "name": "Khu Biệt Thự Nguyễn Viết Xuân",
    "category_id": 4,
    "rating": 4.6,
    "price_level": 2,
    "address": "Đường phố, Lâm Đồng",
    "lat": 11.9342876,
    "lon": 108.4310727,
    "phone_number": "",
    "open_hours": "08:00 - 22:00",
    "main_image_url": "",
    "tags": [
      "restaurant",
      "Lâm Đồng"
    ]
  },
  {
    "id": "1152314561",
    "name": "Cẩm Đô",
    "category_id": 4,
    "rating": 4.6,
    "price_level": 1,
    "address": "Đường phố, Lâm Đồng",
    "lat": 11.9439721,
    "lon": 108.4339101,
    "phone_number": "",
    "open_hours": "08:00 - 22:00",
    "main_image_url": "",
    "tags": [
      "restaurant",
      "Lâm Đồng"
    ]
  },
  {
    "id": "1152314644",
    "name": "Hương Ca",
    "category_id": 1,
    "rating": 4.4,
    "price_level": 2,
    "address": "Đường phố, Lâm Đồng",
    "lat": 11.9360057,
    "lon": 108.4347684,
    "phone_number": "",
    "open_hours": "08:00 - 22:00",
    "main_image_url": "",
    "tags": [
      "restaurant",
      "Lâm Đồng"
    ]
  },
  {
    "id": "1152314772",
    "name": "Hàng Không",
    "category_id": 3,
    "rating": 4.9,
    "price_level": 3,
    "address": "Đường phố, Lâm Đồng",
    "lat": 11.9374351,
    "lon": 108.4438216,
    "phone_number": "",
    "open_hours": "08:00 - 22:00",
    "main_image_url": "",
    "tags": [
      "restaurant",
      "Lâm Đồng"
    ]
  },
  {
    "id": "1152318142",
    "name": "Moulin Rouge",
    "category_id": 1,
    "rating": 4.0,
    "price_level": 3,
    "address": "Đường phố, Lâm Đồng",
    "lat": 11.9385561,
    "lon": 108.4301782,
    "phone_number": "",
    "open_hours": "08:00 - 22:00",
    "main_image_url": "",
    "tags": [
      "restaurant",
      "Lâm Đồng"
    ]
  },
  {
    "id": "1152320175",
    "name": "Ocean Palace",
    "category_id": 4,
    "rating": 4.9,
    "price_level": 2,
    "address": "Đường phố, Lâm Đồng",
    "lat": 11.9282663,
    "lon": 108.4468202,
    "phone_number": "",
    "open_hours": "08:00 - 22:00",
    "main_image_url": "",
    "tags": [
      "restaurant",
      "Lâm Đồng"
    ]
  },
  {
    "id": "12682591169",
    "name": "Cô Thông",
    "category_id": 3,
    "rating": 4.1,
    "price_level": 2,
    "address": "Đường phố, Lạng Sơn",
    "lat": 21.8555846,
    "lon": 106.7614901,
    "phone_number": "",
    "open_hours": "08:00 - 22:00",
    "main_image_url": "",
    "tags": [
      "restaurant",
      "vietnamese",
      "Lạng Sơn"
    ]
  },
  {
    "id": "12682618054",
    "name": "Bún Phở Khánh Vy",
    "category_id": 3,
    "rating": 3.8,
    "price_level": 3,
    "address": "Đường phố, Lạng Sơn",
    "lat": 21.8455853,
    "lon": 106.7609914,
    "phone_number": "",
    "open_hours": "08:00 - 22:00",
    "main_image_url": "",
    "tags": [
      "restaurant",
      "vietnamese",
      "noodle",
      "Lạng Sơn"
    ]
  },
  {
    "id": "12682623395",
    "name": "Dương Hải",
    "category_id": 4,
    "rating": 4.4,
    "price_level": 3,
    "address": "Đường phố, Lạng Sơn",
    "lat": 21.8594922,
    "lon": 106.7567282,
    "phone_number": "",
    "open_hours": "08:00 - 22:00",
    "main_image_url": "",
    "tags": [
      "restaurant",
      "vietnamese",
      "Lạng Sơn"
    ]
  },
  {
    "id": "12709414012",
    "name": "Bánh cuốn Bà Loan",
    "category_id": 1,
    "rating": 4.4,
    "price_level": 2,
    "address": "Đường phố, Lạng Sơn",
    "lat": 21.8571949,
    "lon": 106.7581093,
    "phone_number": "",
    "open_hours": "08:00 - 22:00",
    "main_image_url": "",
    "tags": [
      "restaurant",
      "vietnamese",
      "Lạng Sơn"
    ]
  },
  {
    "id": "12709415984",
    "name": "Xôi Nguyễn Mơ",
    "category_id": 4,
    "rating": 4.6,
    "price_level": 1,
    "address": "Đường phố, Lạng Sơn",
    "lat": 21.8535677,
    "lon": 106.7633339,
    "phone_number": "",
    "open_hours": "08:00 - 22:00",
    "main_image_url": "",
    "tags": [
      "restaurant",
      "vietnamese",
      "Lạng Sơn"
    ]
  },
  {
    "id": "12709432704",
    "name": "Châu Anh",
    "category_id": 2,
    "rating": 4.6,
    "price_level": 1,
    "address": "227 Bắc Sơn, Lạng Sơn",
    "lat": 21.8609215,
    "lon": 106.7592293,
    "phone_number": "",
    "open_hours": "08:00 - 22:00",
    "main_image_url": "",
    "tags": [
      "restaurant",
      "Lạng Sơn"
    ]
  },