[
  {
    "id": 1,
    "name": "Phở Lệ",
    "category_id": 1,
    "rating": 4.7,
    "price_level": 2,
    "address": "413-415 Nguyễn Trãi, Phường 7, Quận 5, TP. HCM",
    "lat": 10.75501,
    "lon": 106.67102,
    "phone_number": "02839234008",
    "open_hours": "06:00 - 13:00",
    "main_image_url": "https://example.com/images/pho-le-cover.jpg",
    "tags": ["pho", "bò", "quán ăn địa phương", "quận 5", "bữa sáng"]
  },
  {
    "id": 2,
    "name": "Quán ăn chay S",
    "category_id": 3,
    "rating": 4.8,
    "price_level": 3,
    "address": "2A Đặng Tất, Phường Tân Định, Quận 1, TP. HCM",
    "lat": 10.78105,
    "lon": 106.69007,
    "phone_number": "02838480749",
    "open_hours": "10:00 - 22:00",
    "main_image_url": "https://example.com/images/chay-s-cover.jpg",
    "tags": ["chay", "lành mạnh", "sang trọng", "quận 1"]
  },
  {
    "id": 3,
    "name": "Cơm Tấm Ba Ghiền",
    "category_id": 1,
    "rating": 4.5,
    "price_level": 1,
    "address": "84 Đặng Văn Ngữ, Phường 10, Phú Nhuận, TP. HCM",
    "lat": 10.78450,
    "lon": 106.65750,
    "phone_number": "02838441243",
    "open_hours": "07:00 - 21:30",
    "main_image_url": "https://example.com/images/ba-ghien-cover.jpg",
    "tags": ["cơm tấm", "sườn", "bình dân", "tân bình"]
  }
]
